cod,NOMBRE,DEPTO,MPIO,LATITUD,LONGITUD,FECHA_INST,FECHA_SUSP
11010010,VUELTA LA [11010010],CHOCÓ,LLORÓ,5.4588611111,-76.545,15/01/1943,
11017010,AGUASAL [11017010],CHOCÓ,LLORÓ,5.4736111111,-76.53775,15/05/1976,
11020010,CARMEN DE ATRATO ,CHOCÓ,EL CARMEN,5.9085277778,-76.1420833333,15/10/1958,
11020020,GUADUAS [11020020],CHOCÓ,EL CARMEN,5.7666666667,-76.1833333333,15/03/1977,15/04/2002
11020050,PINON EL   [11020050],CHOCÓ,EL CARMEN,5.7576666667,-76.2508611111,15/10/1958,
11025010,MANSA LA   [11025010],ANTIOQUIA,CIUDAD BOLÍVAR,5.8783055556,-76.0843333333,15/07/1973,
11027010,PTE LAS SANCHEZ  ,CHOCÓ,EL CARMEN,5.8519722222,-76.1808055556,15/08/1972,06/01/2016
11027020,OCHO EL [11027020],CHOCÓ,EL CARMEN,5.85,-76.25,15/04/1972,15/02/1979
11027030,SIETE EL [11027030],CHOCÓ,EL CARMEN,5.862,-76.1520555556,15/12/1979,
11027040,ARRAYANES LOS ,CHOCÓ,EL CARMEN,5.8,-76.3,15/12/1979,10/12/2008
11027050,GINDRAMA [11027050],CHOCÓ,LLORÓ,5.5215555556,-76.5177222222,15/12/1979,
11027060,PINON EL [11027060],CHOCÓ,EL CARMEN,5.7333333333,-76.3666666667,15/03/1959,15/11/1971
11027070,BORAUDO AUTOM   ,CHOCÓ,LLORÓ,5.5146111111,-76.5756944444,15/04/2005,05/01/2016
11030040,PAIMADO [11030040],CHOCÓ,RIO QUITO (Paimadó),5.4816111111,-76.7408611111,15/02/1977,
11035010,LLORO    [11035010],CHOCÓ,LLORÓ,5.499,-76.5380555556,15/03/1983,
11035020,SAN ISIDRO   [11035020],CHOCÓ,RIO QUITO (Paimadó),5.6261666667,-76.7497222222,15/03/1983,
11037010,SAN ISIDRO [11037010],CHOCÓ,RIO QUITO (Paimadó),5.62625,-76.7497222222,15/05/1967,21/09/2005
11037030,LA LOMA PUEBLO ,CHOCÓ,RIO QUITO (Paimadó),5.5846666667,-76.7532777778,15/04/2005,
11040010,TUTUNENDO [11040010],CHOCÓ,QUIBDÓ,5.7436111111,-76.5378055556,15/01/1966,
11045010,APTO EL CARANO  ,CHOCÓ,QUIBDÓ,5.6905555556,-76.6437777778,15/02/1947,
11045030,HUAPANGO [11045030],CHOCÓ,QUIBDÓ,5.7,-76.6333333333,15/07/1966,15/11/1972
11047010,BELEN    [11047010],CHOCÓ,QUIBDÓ,5.7648333333,-76.6696666667,15/12/1965,
11047020,QUIBDO AUTOM   ,CHOCÓ,QUIBDÓ,5.6892777778,-76.6620833333,15/05/1974,20/09/2013
11047030,NEGUA [11047030],CHOCÓ,QUIBDÓ,5.8303055556,-76.6191944444,15/05/1975,
11047040,QUIBDO AUTOMATICA ,CHOCÓ,QUIBDÓ,5.6979916667,-76.6622583333,30/11/2008,30/11/2008
11050010,TAGACHI [11050010],CHOCÓ,QUIBDÓ,6.2217777778,-76.7270277778,15/01/1966,
11050020,BETE  [1105002],CHOCÓ,MEDIO ATRATO (Beté),5.9947222222,-76.7800277778,15/02/1977,
11050030,BUEY EL  [1105003],CHOCÓ,MEDIO ATRATO (Beté),6.1025,-76.8213611111,15/02/1977,
11050040,CALAORRA [11050040],CHOCÓ,QUIBDÓ,5.7666666667,-76.85,15/02/1977,15/03/1994
11050060,ALTO DEL BUEY ,CHOCÓ,MEDIO ATRATO (Beté),6.1083333333,-76.9156388889,15/02/1977,
11057010,TAGACHI [11057010],CHOCÓ,QUIBDÓ,6.2166666667,-76.7166666667,15/04/1966,15/02/2002
11057020,SAN ANTONIO PADUA ,ANTIOQUIA,VIGIA DEL FUERTE,6.2866666667,-76.7618055556,15/05/1973,
11060010,BUCHADO [11060010],ANTIOQUIA,VIGIA DEL FUERTE,6.42,-76.7792777778,15/01/1969,
11070010,PLAYA LA-MURRY ,ANTIOQUIA,VIGIA DEL FUERTE,6.6166666667,-76.75,15/12/1966,15/02/2002
11070020,ROBLE EL [11070020],ANTIOQUIA,URRAO,6.3322222222,-76.2286111111,15/03/1977,
11070030,CLARITA LA [11070030],ANTIOQUIA,URRAO,6.5394444444,-76.1586111111,15/03/1977,
11070040,URRAO [11070040],ANTIOQUIA,URRAO,6.3333333333,-76.1666666667,15/01/1969,15/07/1973
11070130,BRECHON EL [11070130],ANTIOQUIA,URRAO,6.1333333333,-76.0333333333,15/10/1970,15/01/2000
11075010,HONDA LA [11075010],ANTIOQUIA,URRAO,6.3563888889,-76.1580555556,15/07/1990,10/05/2011
11075020,URRAO    [11075020],ANTIOQUIA,URRAO,6.2983055556,-76.1433055556,15/06/1973,06/01/2016
11077010,BELLAVISTA    [11077010],CHOCÓ,BOJAYÁ (Bellavista),6.5588055556,-76.8844722222,15/05/1966,
11077020,MAGDALENA LA [11077020],ANTIOQUIA,URRAO,6.2983611111,-76.1344722222,15/09/1972,
11077030,PLAYA LA [11077030],ANTIOQUIA,VIGIA DEL FUERTE,6.6166666667,-76.75,15/09/1975,15/02/2002
11080010,BELLAVISTA [11080010],CHOCÓ,BOJAYÁ (Bellavista),6.5591666667,-76.8854166667,15/07/1966,
11080030,LOMA LA-BOJAYA ,CHOCÓ,BOJAYÁ (Bellavista),6.5333333333,-76.9833333333,15/01/1967,15/08/1980
11085010,LOMA LA [11085010],CHOCÓ,BOJAYÁ (Bellavista),6.5333333333,-76.9833333333,15/09/1980,15/07/2000
11090010,OPOGADO [11090010],CHOCÓ,BOJAYÁ (Bellavista),6.8125277778,-76.9727222222,15/04/1977,
11100010,VIGIA DE CURVARADO ,CHOCÓ,CARMEN DEL DARIÉN  ,7.0833333333,-76.9166666667,15/06/1972,15/02/2002
11100020,DOMINGODO [11100020],CHOCÓ,CARMEN DEL DARIÉN  ,7.1785,-77.0344722222,15/01/1966,
11100030,MURINDO [11100030],ANTIOQUIA,MURINDÓ,7,-76.75,15/12/1981,15/12/1986
11105010,MURINDO [11105010],ANTIOQUIA,MURINDÓ,6.9666666667,-76.75,15/04/1972,15/11/1981
11105020,CARMEN DEL DARIEN ,CHOCÓ,CARMEN DEL DARIÉN  ,7.1543333333,-76.9771944444,28/09/2005,
11107010,DOMINGODO    [11107010],CHOCÓ,CARMEN DEL DARIÉN  ,7.1785,-77.0347222222,15/11/1966,
11110010,NORMAL STA TERESA ,ANTIOQUIA,FRONTINO,6.7633333333,-76.1336111111,15/01/1969,
11110020,ABRIAQUI [11110020],ANTIOQUIA,ABRIAQUÍ,6.6425,-76.075,15/12/1974,
11110030,FUEMIA [11110030],ANTIOQUIA,FRONTINO,6.8580555556,-76.2522222222,15/03/1977,
11110040,CAÑASGORDAS [11110040],ANTIOQUIA,CAÑASGORDAS,6.75,-76.0333333333,15/01/1966,15/12/1973
11110060,DABEIBA [11110060],ANTIOQUIA,DABEIBA,7,-76.2666666667,15/07/1944,15/05/1948
11110110,BOQUERON DE TOYO ,ANTIOQUIA,GIRALDO,6.6994444444,-75.9775,15/05/1983,10/05/2011
11115010,DABEIBA [11115010],ANTIOQUIA,DABEIBA,7,-76.2666666667,15/03/1972,15/11/1973
11115020,CAÑASGORDAS    [11115020],ANTIOQUIA,CAÑASGORDAS,6.7580277778,-76.0296666667,15/07/1973,
11115030,NUTIBARA [11115030],ANTIOQUIA,FRONTINO,6.8166666667,-76.25,15/07/1973,15/09/1981
11115040,MUSINGA    [11115040],ANTIOQUIA,FRONTINO,6.7779722222,-76.2033333333,15/08/1984,
11117010,ANIL EL   [11117010],ANTIOQUIA,URAMITA,6.8738888889,-76.1495833333,15/03/1972,
11117020,DABEIBA 1 [11117020],ANTIOQUIA,DABEIBA,7.0166666667,-76.2666666667,15/09/1972,15/02/1979
11117030,TASCON [11117030],ANTIOQUIA,DABEIBA,7.0833333333,-76.4166666667,15/10/1976,15/11/2004
11117040,MUTATA [11117040],ANTIOQUIA,MUTATÁ,7.2294444444,-76.4380555556,15/10/1976,
11117050,DABEIBA 2   [11117050],ANTIOQUIA,DABEIBA,7.0043888889,-76.2663888889,15/09/1976,
11120010,SALAQUI [11120010],CHOCÓ,RIOSUCIO,7.4333333333,-77.2833333333,15/11/1974,15/11/1983
11120040,RIOSUCIO [11120040],CHOCÓ,RIOSUCIO,7.4394444444,-77.1152777778,15/09/1960,
11125010,TERESITA LA [11125010],CHOCÓ,RIOSUCIO,7,-77.5,15/03/1972,15/02/2002
11127010,NUEVA LA [11127010],CHOCÓ,RIOSUCIO,7.3166666667,-77.1666666667,15/03/1977,15/09/1989
11130010,UNGUIA [11130010],CHOCÓ,UNGUÍA,8.0367222222,-77.0878611111,15/11/1974,
11130020,HONDA LA [11130020],CHOCÓ,RIOSUCIO,7.5766666667,-77.1255555556,15/04/1972,15/04/1972
11130030,SAUTATA [11130030],CHOCÓ,RIOSUCIO,7.8666666667,-77.1666666667,15/01/1967,15/10/1971
11135010,SAUTATA [11135010],CHOCÓ,RIOSUCIO,7.85,-77.1166666667,15/04/1972,31/03/2008
11135020,BALSA LA [11135020],CHOCÓ,RIOSUCIO,7.5166666667,-77.2,15/05/1988,15/10/1996
11135030,UNGUIA AUTOM   ,CHOCÓ,UNGUÍA,8.0367222222,-77.0878611111,24/09/2005,
11140010,MARIRRIO [11140010],ANTIOQUIA,TURBO,8,-76.95,15/07/1987,15/07/1989
11145010,BAJIRA [11145010],CHOCÓ,RIOSUCIO,7.3833333333,-76.6666666667,15/11/1985,15/02/1997
11147010,RIOSUCIO    [11147010],CHOCÓ,RIOSUCIO,7.4428333333,-77.12125,15/12/1965,
11147020,BAJIRA    [11147020],CHOCÓ,RIOSUCIO,7.3684444444,-76.7272777778,15/09/1990,
11147030,PRIMAVERA [11147030],ANTIOQUIA,MUTATÁ,7.35,-76.6333333333,15/03/1991,15/02/1997
11150010,TITUMATE    [11150010],CHOCÓ,UNGUÍA,8.3080555556,-77.0758333333,15/11/1974,
11150020,TANELA    [11150020],CHOCÓ,UNGUÍA,8.1629166667,-77.0404166667,15/11/1974,
11150030,ACANDI [11150030],CHOCÓ,ACANDÍ,8.5308333333,-77.2769444444,15/04/1980,
11155010,PLAYA LA [11155010],CHOCÓ,ACANDÍ,8.5333333333,-77.2833333333,15/08/1971,15/01/1977
11155020,GLORIA LA [11155020],CHOCÓ,UNGUÍA,8.2666666667,-77.0666666667,15/04/1980,15/12/1986
11155030,CAPURGANA AUTOMATICA ,CHOCÓ,ACANDÍ,8.61625,-77.3281944444,16/04/2007,
11159010,CAPURGANA AUTOM   ,CHOCÓ,ACANDÍ,8.61625,-77.3281944444,15/08/1995,
12010010,TORMENTO EL [12010010],ANTIOQUIA,TURBO,7.7663888889,-76.8552777778,15/01/1972,
12010020,PALMERA LA [12010020],ANTIOQUIA,CHIGORODÓ,7.5383333333,-76.6055555556,15/03/1972,15/02/1991
12010030,BARRANQUILLITA    ,ANTIOQUIA,CHIGORODÓ,7.5711111111,-76.6975,15/12/1974,
12010040,TULENAPA [12010040],ANTIOQUIA,CHIGORODÓ,7.6666666667,-76.6666666667,15/08/1974,15/08/1982
12010050,TOSCANA LA   [12010050],ANTIOQUIA,CAREPA,7.8080555556,-76.7030555556,15/07/1977,
12010060,LORENA LA   [12010060],ANTIOQUIA,APARTADÓ,7.8630555556,-76.6891666667,15/07/1976,
12010070,CASCO EL   [12010070],ANTIOQUIA,APARTADÓ,7.8844444444,-76.6477777778,15/07/1977,
12010080,STA ISABEL [12010080],ANTIOQUIA,CAREPA,7.75,-76.6666666667,15/07/1977,15/04/1994
12010090,TRIGANA    [12010090],ANTIOQUIA,CAREPA,7.7476666667,-76.7118888889,15/06/1977,
12010100,EUPOL    [12010100],ANTIOQUIA,TURBO,7.9455277778,-76.6173888889,15/07/1977,
12010110,PRADO MAR   [12010110],ANTIOQUIA,TURBO,7.9874166667,-76.6385277778,15/07/1977,
12010120,STA MARTHA   [12010120],ANTIOQUIA,TURBO,7.9238333333,-76.6490833333,15/07/1977,
12010130,CHIGORODO [12010130],ANTIOQUIA,CHIGORODÓ,7.7,-76.7,15/01/1966,15/03/1972
12010140,RIOGRANDE [12010140],ANTIOQUIA,TURBO,7.9333333333,-76.6333333333,15/01/1972,15/07/1977
12010150,VILLA ARTEAGA ,ANTIOQUIA,MUTATÁ,7.45,-76.6166666667,15/01/1946,15/03/1972
12010160,SAN JOSE APARTADO ,ANTIOQUIA,APARTADÓ,7.8666666667,-76.6,15/08/1984,15/12/1997
12010170,NUEVO ORIENTE   ,ANTIOQUIA,TURBO,7.4603333333,-76.6895555556,15/03/1991,
12010180,CHOROMANDO HDA ,ANTIOQUIA,TURBO,7.95,-76.5833333333,15/08/1984,15/10/1997
12015010,VILLARTEAGA [12015010],ANTIOQUIA,MUTATÁ,7.3346666667,-76.4860277778,15/03/1972,
12015020,UNIBAN    [12015020],ANTIOQUIA,APARTADÓ,7.8259166667,-76.6513333333,15/08/1977,
12015030,IDEMA-MONTECRISTO ,ANTIOQUIA,CHIGORODÓ,7.65,-76.6833333333,15/03/1972,15/08/1982
12015040,NEGRA LA 1 [12015040],ANTIOQUIA,TURBO,7.95,-76.6833333333,15/07/1977,15/12/1982
12015050,RIOGRANDE [12015050],ANTIOQUIA,TURBO,7.9166666667,-76.6333333333,15/09/1982,15/12/1992
12015060,TULENAPA    [12015060],ANTIOQUIA,CAREPA,7.7739444444,-76.66575,15/08/1982,06/01/2016
12015070,APTO LOS CEDROS  ,ANTIOQUIA,CAREPA,7.8163888889,-76.7178888889,15/05/1983,
12015080,CERRAZON LA [12015080],ANTIOQUIA,CHIGORODÓ,7.7166666667,-76.6166666667,15/08/1986,15/02/2002
12015090,PALMERA LA [12015090],ANTIOQUIA,CHIGORODÓ,7.5383333333,-76.6055555556,15/03/1991,17/02/2010
12015100,PISTA INDIRA AUTOM  ,ANTIOQUIA,TURBO,7.94075,-76.6961666667,20/09/2005,
12015110,CHIGORODO AUTOM   ,ANTIOQUIA,CHIGORODÓ,7.6711388889,-76.6940555556,18/09/2005,
12017010,CHIGORODO    [12017010],ANTIOQUIA,CHIGORODÓ,7.6730555556,-76.6839166667,15/10/1976,
12017020,BARRANQUILLITA    ,ANTIOQUIA,CHIGORODÓ,7.5715833333,-76.7105555556,15/03/1977,
12017030,VICTORIA LA [12017030],ANTIOQUIA,APARTADÓ,7.8166666667,-76.6833333333,15/03/1977,15/05/1996
12017040,RIOGRANDE [12017040],ANTIOQUIA,TURBO,7.9278333333,-76.6211111111,15/07/1977,
12017050,PTE CARRETERA ,ANTIOQUIA,APARTADÓ,7.8238888889,-76.6480555556,15/03/1977,10/05/2011
12017060,APARTADO [12017060],ANTIOQUIA,APARTADÓ,7.87575,-76.6225833333,15/03/1977,10/03/2013
12017070,CERRAZON LA   [12017070],ANTIOQUIA,CHIGORODÓ,7.7208611111,-76.5763611111,15/09/1986,
12017080,CAREPA [12017080],ANTIOQUIA,CAREPA,7.7633611111,-76.65825,15/03/1977,01/10/2011
12017100,VILLARTEAGA    [12017100],ANTIOQUIA,MUTATÁ,7.4132222222,-76.5996111111,15/09/1990,
12020010,PUEBLO BELLO   [12020010],ANTIOQUIA,TURBO,8.2041666667,-76.5247222222,15/04/1972,
12020040,NUEVA ANTIOQUIA ,ANTIOQUIA,TURBO,8.05,-76.55,15/02/1987,15/01/1996
12020170,PLAYONA LA [12020170],ANTIOQUIA,TURBO,8.1833333333,-76.65,15/08/1984,15/10/1992
12025010,APTO GONZALO ,ANTIOQUIA,TURBO,8.1166666667,-76.7333333333,15/07/1931,15/02/1984
12025020,CARIBIA [12025020],ANTIOQUIA,NECOCLÍ,8.5,-76.6833333333,15/04/1972,15/09/1983
12025030,MELLITO EL   [12025030],ANTIOQUIA,NECOCLÍ,8.5426666667,-76.6733611111,15/09/1983,
12025040,TURBO [12025040],ANTIOQUIA,TURBO,8.0918055556,-76.7163333333,15/04/1984,28/08/2014
12027010,PUEBLO BELLO   [12027010],ANTIOQUIA,TURBO,8.2040555556,-76.5246666667,15/08/1977,
12027030,TRES EL [12027030],ANTIOQUIA,TURBO,8.0650277778,-76.65775,15/02/1977,10/05/2011
12027040,CURRULAO [12027040],ANTIOQUIA,TURBO,7.9944166667,-76.63175,15/09/1977,10/05/2011
12027050,PUEBLO NUEVO   ,ANTIOQUIA,NECOCLÍ,8.4150555556,-76.6293888889,15/08/1978,
12027060,DOS EL [12027060],ANTIOQUIA,TURBO,8.1265,-76.6938333333,15/08/1984,18/08/2011
12037050,SAN PEDRO [12037050],ANTIOQUIA,SAN PEDRO DE URABÁ,8.2778055556,-76.3913055556,15/06/1980,20/10/2010
13015010,URRA 2 [13015010],CÓRDOBA,TIERRALTA,7.7333333333,-76.2,15/11/1982,15/12/1988
13017030,SALTO VIEJO [13017030],CÓRDOBA,TIERRALTA,7.7833333333,-76.2333333333,15/03/1974,15/12/1988
23020090,MARULANDA    [23020090],CALDAS,MARULANDA,5.2781666667,-75.2671388889,15/08/1974,
23050420,ARGELIA ANTIOQUIA   ,ANTIOQUIA,ARGELIA,5.7311388889,-75.1385277778,23/10/2007,
23055070,ARGELIA    [23055070],ANTIOQUIA,ARGELIA,5.7312222222,-75.1386388889,15/07/1977,
23070020,RIO CLARO [23070020],ANTIOQUIA,SONSÓN,5.8555277778,-74.8483611111,01/09/2009,
23075010,RIO CLARO [23075010],ANTIOQUIA,SONSÓN,5.8555277778,-74.8483611111,15/11/1985,17/02/2010
23080200,ARGELIA [23080200],ANTIOQUIA,ARGELIA,5.7312222222,-75.1386388889,15/01/1937,15/12/1937
23080390,STO DOMINGO   [23080390],ANTIOQUIA,SANTO DOMINGO,6.4683055556,-75.1638055556,15/04/1986,
23080400,SAN CARLOS [23080400],ANTIOQUIA,SAN CARLOS,6.2,-74.9833333333,15/08/1963,15/04/1965
23080490,SAN CARLOS [23080490],ANTIOQUIA,SAN CARLOS,6.2,-74.9833333333,15/02/1968,15/04/1992
23080630,TOPACIO EL [23080630],ANTIOQUIA,SAN RAFAEL,6.3833333333,-74.9833333333,15/05/1973,15/11/1991
23080640,MARINILLA    [23080640],ANTIOQUIA,MARINILLA,6.1710833333,-75.328,15/06/1973,
23080650,CAMPOALEGRE    [23080650],ANTIOQUIA,CARMEN DE VIBORAL,6.0737777778,-75.3356111111,15/06/1973,
23080660,MORRO EL [23080660],ANTIOQUIA,SANTO DOMINGO,6.4666666667,-75.1333333333,15/05/1973,15/04/1986
23080680,ALEJANDRIA [23080680],ANTIOQUIA,ALEJANDRÍA,6.3833333333,-75.15,15/06/1973,15/09/1988
23080730,TEJAR EL [23080730],ANTIOQUIA,SAN RAFAEL,6.3,-75.0333333333,15/05/1973,15/05/1994
23080740,CONCEPCION    [23080740],ANTIOQUIA,CONCEPCIÓN,6.3969444444,-75.2591666667,15/05/1975,
23080750,COCORNA    [23080750],ANTIOQUIA,COCORNÁ,6.0533333333,-75.1826111111,15/05/1975,
23080760,SAN ROQUE   [23080760],ANTIOQUIA,SAN ROQUE,6.4875,-75.017,15/05/1975,
23080790,LINDA LA [23080790],ANTIOQUIA,CARMEN DE VIBORAL,5.95,-75.2833333333,15/02/1982,15/11/2004
23080800,PATIO BONITO [23080800],ANTIOQUIA,SAN CARLOS,6.1833333333,-74.9,15/11/1982,15/11/2000
23080810,JORDAN EL   [23080810],ANTIOQUIA,SAN CARLOS,6.2495,-74.8281111111,15/11/1982,
23080820,TAFETANES    [23080820],ANTIOQUIA,GRANADA,6.1467222222,-75.11775,15/05/1983,
23080910,MEDIOS LOS [23080910],ANTIOQUIA,GRANADA,6.1333333333,-75.0833333333,15/06/1991,15/03/1999
23080920,SANTUARIO    [23080920],ANTIOQUIA,SANTUARIO,6.1330555556,-75.2735833333,15/05/1992,
23080930,POPO EL [23080930],ANTIOQUIA,SAN CARLOS,6.2,-74.9833333333,15/05/1992,15/08/2002
23080940,PRESA SAN LORENZO  ,ANTIOQUIA,ALEJANDRÍA,6.3845833333,-74.9967777778,15/07/1992,
23080950,VIENTO EL [23080950],ANTIOQUIA,ALEJANDRÍA,6.4,-75.1,15/08/1992,15/11/2004
23085010,CALDERAS [23085010],ANTIOQUIA,SAN CARLOS,6.15,-75.0666666667,15/08/1985,15/07/1988
23085020,RADIO FARO [23085020],ANTIOQUIA,ALEJANDRÍA,6.3833333333,-75.15,15/03/1987,15/05/1987
23085030,ALEJANDRIA    [23085030],ANTIOQUIA,ALEJANDRÍA,6.37625,-75.1433888889,15/09/1988,
23085040,SELVA LA [23085040],ANTIOQUIA,RIONEGRO,6.1319166667,-75.4145555556,15/05/1958,28/08/2014
23085080,NUS GJA EXP EL [23085080],ANTIOQUIA,SAN ROQUE,6.4835833333,-74.8366944444,15/05/1972,
23085100,CARMELO EL HDA  ,ANTIOQUIA,LA CEJA,6.0333333333,-75.4,15/06/1973,15/09/1976
23085110,PENOL EL   [23085110],ANTIOQUIA,PEÑOL,6.2142222222,-75.2413055556,15/06/1973,
23085130,SAN CARLOS [23085130],ANTIOQUIA,SAN CARLOS,6.2,-74.9833333333,15/05/1973,15/09/1980
23085140,SAN FRANCISCO   ,ANTIOQUIA,SAN FRANCISCO,5.9638055556,-75.1006944444,15/06/1973,
23085160,CORRIENTES    [23085160],ANTIOQUIA,SAN VICENTE,6.3119444444,-75.2535555556,15/05/1975,
23085200,A.J M CORDOVA  ,ANTIOQUIA,RIONEGRO,6.1686666667,-75.4259166667,15/10/1973,
23085210,VIOLETAS LAS [23085210],ANTIOQUIA,SAN RAFAEL,6.3488888889,-75.0027777778,15/11/1982,30/09/2011
23085220,SAN CARLOS [23085220],ANTIOQUIA,SAN CARLOS,6.1576666667,-75.0389166667,15/05/1983,
23085260,LA SELVA AUTOM  ,ANTIOQUIA,RIONEGRO,6.1319166667,-75.4145555556,11/10/2004,
23085270,A.J.M. CORDOVA   ,ANTIOQUIA,RIONEGRO,6.1686666667,-75.4259166667,27/11/2006,
23087150,PTE REAL   [23087150],ANTIOQUIA,RIONEGRO,6.1434722222,-75.3799444444,15/05/1973,
23087160,CARAMANTA    [23087160],ANTIOQUIA,YOLOMBÓ,6.5073333333,-74.8651666667,15/07/1973,
23087180,SIRPES LOS   [23087180],ANTIOQUIA,CONCEPCIÓN,6.3754444444,-75.16125,15/05/1973,
23087190,GARRUCHA LA   [23087190],ANTIOQUIA,SAN LUIS,5.9983611111,-74.93825,15/06/1973,
23087200,PAILANIA    [23087200],ANTIOQUIA,COCORNÁ,5.9746944444,-75.1171388889,15/07/1973,
23087260,COLTEPUNTO RNS 19  ,ANTIOQUIA,RIONEGRO,6.1689166667,-75.3574166667,15/08/1977,
23087300,CASAMIA [23087300],ANTIOQUIA,RIONEGRO,6.1421944444,-75.3765555556,15/05/1992,28/08/2014
23087480,CANAL DE FUGA ,ANTIOQUIA,SAN CARLOS,6.2333333333,-74.8833333333,15/03/1987,15/11/1990
23087660,PTE LA FERIA [23087660],ANTIOQUIA,MARINILLA,6.1726666667,-75.3378611111,15/05/1992,
23087670,RIOTEX    [23087670],ANTIOQUIA,RIONEGRO,6.18125,-75.3663888889,15/03/1992,
23087830,FRESERA LA   [23087830],ANTIOQUIA,RIONEGRO,6.1997222222,-75.3340833333,15/09/1993,
23090020,VIRGINIAS    [23090020],ANTIOQUIA,PUERTO BERRÍO,6.3935555556,-74.6818055556,15/07/1976,
23097050,PTO SUIZA [23097050],ANTIOQUIA,PUERTO NARE,6.25,-74.5666666667,15/04/1977,15/11/1986
23100030,TIGRE EL   [23100030],ANTIOQUIA,VEGACHÍ,6.8404722222,-74.7856666667,15/06/1970,
23100040,YOLOMBO    [23100040],ANTIOQUIA,YOLOMBÓ,6.5942777778,-75.0109166667,15/04/1975,
23105030,VEGACHI    [23105030],ANTIOQUIA,VEGACHÍ,6.7741111111,-74.7965277778,15/04/1975,
23105060,VEGACHI AUTOM   ,ANTIOQUIA,VEGACHÍ,6.7741111111,-74.7965277778,20/11/2004,
23105070,MACEO AUTOMATICA ,ANTIOQUIA,MACEO,6.5716388889,-74.7947222222,18/06/2005,
23107030,MASCOTA LA [23107030],ANTIOQUIA,YALÍ,6.6396388889,-74.8754444444,15/05/1975,
23107040,VEGACHI    [23107040],ANTIOQUIA,VEGACHÍ,6.7723611111,-74.7975833333,15/04/1975,
23110010,PTO BOYACA [23110010],BOYACÁ,PUERTO BOYACÁ,5.95,-74.6,15/08/1959,15/06/1974
23117040,PTO BOYACA [23117040],BOYACÁ,PUERTO BOYACÁ,5.9783333333,-74.5666666667,15/08/1974,15/01/1976
23175020,APTO OTU   [23175020],ANTIOQUIA,REMEDIOS,7.01175,-74.7163055556,15/05/1940,
25020030,GUACAMAYO    [25020030],BOLÍVAR,ACHÍ,8.7272222222,-74.5122222222,15/07/1966,
25020310,NECHI [25020310],ANTIOQUIA,NECHÍ,8.1,-74.8333333333,15/07/1966,15/05/1970
25020330,CAIMITAL    [25020330],BOLÍVAR,SAN JACINTO DEL CAUCA,8.3663888889,-74.5691666667,15/09/1966,
25020350,GUARANDA    [25020350],BOLÍVAR,ACHÍ,8.4927777778,-74.5416666667,15/08/1966,
25020370,MONEDA LA HDA  ,ANTIOQUIA,CAUCASIA,8.0366666667,-74.9422222222,15/05/1970,
25020410,CANDELARIA LA   ,BOLÍVAR,SAN JACINTO DEL CAUCA,8.2194444444,-74.72875,15/07/1966,
25020420,VARAS LAS   [25020420],BOLÍVAR,SAN JACINTO DEL CAUCA,8.3876944444,-74.563,15/04/1987,
25020450,MONTECRISTO [25020450],BOLÍVAR,MONTECRISTO,8.3,-74.4333333333,15/07/1966,15/10/1974
25020510,ALPES LOS [25020510],BOLÍVAR,SAN JACINTO DEL CAUCA,8.4166666667,-74.55,15/08/1966,15/05/2002
25020530,ILUSION LA   [25020530],ANTIOQUIA,CAUCASIA,8.0255,-75.08975,15/05/1970,
25020540,PATIO BONITO   [25020540],ANTIOQUIA,NECHÍ,8.0311111111,-74.7061111111,15/05/1970,
25020800,BUENAVISTA    [25020800],BOLÍVAR,ACHÍ,8.5730555556,-74.5297222222,15/04/1974,
25020810,ASTILLEROS [25020810],BOLÍVAR,SAN JACINTO DEL CAUCA,8.2913333333,-74.6057222222,15/04/1974,
25020850,REGENCIA [25020850],BOLÍVAR,MONTECRISTO,8.1333333333,-74.65,15/05/1974,15/10/1992
25020940,VILLANUEVA    [25020940],SUCRE,GUARANDA,8.3327777778,-74.7355555556,15/04/1974,
25021120,SERRANIA SAN LUCAS ,BOLÍVAR,MONTECRISTO,8.3,-74.35,15/04/1974,15/06/1986
25021390,CAUCASIA [25021390],ANTIOQUIA,CAUCASIA,8,-75.2,15/02/1959,15/04/2004
25021480,ESPERANZA LA RADIO  ,ANTIOQUIA,NECHÍ,8.0319444444,-74.7885277778,15/03/1979,
25021490,RAYA LA   [25021490],BOLÍVAR,SAN JACINTO DEL CAUCA,8.3445555556,-74.5612222222,15/03/1979,
25021530,TALADRO EL [25021530],BOLÍVAR,SAN JACINTO DEL CAUCA,8.2666666667,-74.7333333333,15/09/1973,15/03/1974
25025130,VICTORIA LA [25025130],BOLÍVAR,ACHÍ,8.3333333333,-74.7333333333,15/06/1969,15/12/1971
25025140,NECHI [25025140],ANTIOQUIA,NECHÍ,8.1,-74.7666666667,15/05/1970,15/05/2002
25025200,TALADRO EL [25025200],BOLÍVAR,SAN JACINTO DEL CAUCA,8.2666666667,-74.7333333333,15/06/1973,15/06/1974
25025230,MONTECRISTO [25025230],BOLÍVAR,MONTECRISTO,8.3,-74.4833333333,15/08/1974,15/11/2004
25027050,MARGENTO    [25027050],ANTIOQUIA,CAUCASIA,8.0254444444,-75.08975,15/07/1966,
25027060,GUACAMAYO [25027060],BOLÍVAR,ACHÍ,8.7272222222,-74.5122222222,15/07/1962,15/02/1969
25027130,PALANCA [25027130],ANTIOQUIA,CAUCASIA,8,-75.1666666667,15/02/1967,15/10/1977
25027150,GUARANDA [25027150],BOLÍVAR,ACHÍ,8.4927777778,-74.5416666667,15/04/1967,15/04/2002
25027160,ACHI    [25027160],BOLÍVAR,ACHÍ,8.5599722222,-74.5538611111,15/03/1975,
25027200,LAS VARAS AUTOM  ,BOLÍVAR,SAN JACINTO DEL CAUCA,8.3874166667,-74.5631666667,15/06/1966,
25027260,BUENAVISTA [25027260],BOLÍVAR,ACHÍ,8.5666666667,-74.55,15/04/1967,15/03/1975
25027270,LAS FLORES   [25027270],ANTIOQUIA,NECHÍ,8.1024166667,-74.7734444444,15/06/1968,
25027280,CANDELARIA LA [25027280],BOLÍVAR,SAN JACINTO DEL CAUCA,8.2333333333,-74.7166666667,15/11/1966,15/05/1969
25027480,NECHI [25027480],ANTIOQUIA,NECHÍ,8.1,-74.7666666667,15/06/1966,15/12/1967
25027640,TRES CRUCES   [25027640],BOLÍVAR,ACHÍ,8.7030833333,-74.5173055556,15/09/1974,
25027880,GALINDO [25027880],BOLÍVAR,SAN JACINTO DEL CAUCA,8.3,-74.5833333333,15/04/1975,15/05/2002
25027910,LA RAYA   [25027910],BOLÍVAR,SAN JACINTO DEL CAUCA,8.3445555556,-74.5612222222,15/03/1975,
25027950,SAN JACINTO [25027950],BOLÍVAR,SAN JACINTO DEL CAUCA,8.25,-74.7166666667,15/04/1975,15/05/2002
25028040,INSP FLUVIAL CAUCA ,ANTIOQUIA,CAUCASIA,7.9833333333,-75.2,15/11/1992,15/05/2002
25028350,MANCHA LA [25028350],BOLÍVAR,SAN JACINTO DEL CAUCA,8.2666666667,-74.5833333333,15/09/1979,15/07/1999
26160080,SALAMINA CONC BARC  ,CALDAS,SALAMINA,5.3954444444,-75.4893055556,15/08/1970,
26160090,PACORA PLAZA FERIA  ,CALDAS,PÁCORA,5.5224444444,-75.4550833333,15/08/1970,
26160160,MARIA LA   [26160160],CALDAS,AGUADAS,5.5875,-75.5775,15/01/1962,
26165030,JARDIN EL [26165030],ANTIOQUIA,JARDÍN,5.5833333333,-75.8333333333,15/06/1990,15/06/1990
26167090,COSTA AZUL   [26167090],CALDAS,SALAMINA,5.3563333333,-75.4928611111,15/08/1984,
26170150,PUEBLORRICO    [26170150],ANTIOQUIA,PUEBLORRICO,5.7910555556,-75.8388055556,15/09/1970,
26170160,NACIONAL LA GJA ,ANTIOQUIA,TÁMESIS,5.7166666667,-75.7166666667,15/09/1970,15/02/1978
26170170,PRADERA LA [26170170],ANTIOQUIA,CARAMANTA,5.5333333333,-75.6666666667,15/09/1970,15/07/1987
26170180,CARAMANTA    [26170180],ANTIOQUIA,CARAMANTA,5.5478333333,-75.6413055556,15/10/1970,
26170190,DIQUE EL   [26170190],ANTIOQUIA,JERICÓ,5.8038611111,-75.7236111111,15/09/1970,
26170350,FLECHA LA [26170350],CALDAS,MARMATO,5.4666666667,-75.6166666667,15/09/1990,15/02/2002
26175030,NACIONAL GJA LA  [26175030],ANTIOQUIA,TÁMESIS,5.7173333333,-75.6909166667,15/07/1977,
26175040,TUNEZ HDA   [26175040],ANTIOQUIA,FREDONIA,5.80025,-75.6509722222,15/04/1975,
26177060,MARIA LA [26177060],ANTIOQUIA,CARAMANTA,5.6,-75.6,15/10/1975,15/09/2005
26177070,PTE CARRETERA ,ANTIOQUIA,TÁMESIS,5.75,-75.6333333333,15/03/1978,15/04/1978
26177090,BALSOS LOS [26177090],ANTIOQUIA,VALPARAISO,5.7166666667,-75.6,15/07/1978,15/05/2002
26177100,STA CLARA [26177100],ANTIOQUIA,CONCORDIA,5.95,-75.85,15/05/1978,15/04/2002
26180160,ABEJORRAL    [26180160],ANTIOQUIA,ABEJORRAL,5.7859722222,-75.4304166667,15/05/1970,
26180170,UNION LA   [26180170],ANTIOQUIA,LA UNIÓN,5.9983333333,-75.3813888889,15/05/1970,
26180180,SONSON    [26180180],ANTIOQUIA,SONSÓN,5.71525,-75.2945,15/06/1970,
26180190,AGUADAS    [26180190],CALDAS,AGUADAS,5.6000277778,-75.4511944444,15/08/1970,
26180200,MONTEBELLO    [26180200],ANTIOQUIA,MONTEBELLO,5.9508333333,-75.5368333333,15/10/1970,
26180240,PAVAS LAS   [26180240],CALDAS,AGUADAS,5.5221944444,-75.3928888889,15/04/1994,
26180250,VALLE ALTO   [26180250],CALDAS,SALAMINA,5.35,-75.3177777778,15/04/1994,
26180260,MIRANDA LA [26180260],CALDAS,SALAMINA,5.4271666667,-75.3335833333,15/09/1999,
26180270,PINTADA LA AUTOMATICA ,ANTIOQUIA,LA PINTADA,5.7307222222,-75.6081111111,15/02/2009,18/08/2011
26185010,PELADA LA [26185010],CALDAS,AGUADAS,5.57875,-75.3447777778,15/04/1994,
26185020,MESOPOTAMIA    [26185020],ANTIOQUIA,LA UNIÓN,5.8863611111,-75.3186388889,15/06/1970,
26185030,JERICO AUTOM   [26185030],ANTIOQUIA,JERICÓ,5.7991666667,-75.7895277778,28/11/2004,06/01/2016
26185040,SAN FELIX   [26185040],CALDAS,SALAMINA,5.3729444444,-75.3753333333,15/08/1970,
26185050,STA BARBARA AUTOM  ,ANTIOQUIA,SANTA BÁRBARA,5.8595833333,-75.5562777778,30/11/2004,
26187030,SONSON    [26187030],ANTIOQUIA,SONSÓN,5.6951944444,-75.3137777778,15/06/1955,
26187040,QUITASUENO [26187040],CALDAS,AGUADAS,5.7211388889,-75.5525833333,10/03/2014,
26187110,LA PINTADA AUTOM  ,ANTIOQUIA,LA PINTADA,5.7307222222,-75.6081111111,15/10/1961,
26187170,LA HERENCIA   [26187170],CALDAS,AGUADAS,5.57575,-75.3406944444,15/05/1994,28/08/2014
26187180,ALBANIA [26187180],ANTIOQUIA,SONSÓN,5.5333333333,-75.3333333333,15/05/1994,10/12/2008
26190080,BETANIA-VOLGA ,ANTIOQUIA,BETANIA,5.7,-75.9833333333,15/06/1968,15/03/1971
26190090,BETANIA-LAS GUACAS   ,ANTIOQUIA,BETANIA,5.755,-75.9755277778,15/10/1970,
26190100,STA BARBARA   [26190100],ANTIOQUIA,ANDES,5.5639722222,-75.9000833333,15/10/1970,
26190120,CAMPAMENTO [26190120],ANTIOQUIA,ANDES,5.6813333333,-75.8755833333,15/05/1979,15/12/1996
26190130,MANSA LA [26190130],CHOCÓ,EL CARMEN,5.75,-76.1,15/10/1970,15/04/1973
26195020,ITA ANDES [26195020],ANTIOQUIA,ANDES,5.691,-75.8802222222,15/07/1970,
26195030,JARDIN EL [26195030],ANTIOQUIA,JARDÍN,5.5877222222,-75.8005555556,15/06/1990,
26197010,CAMPAMENTO    [26197010],ANTIOQUIA,ANDES,5.6813333333,-75.8755833333,15/09/1971,
26197020,BRASILIA    [26197020],ANTIOQUIA,CIUDAD BOLÍVAR,5.8254444444,-75.9353333333,15/09/1970,06/01/2016
26197030,REMOLINO EL   [26197030],ANTIOQUIA,CIUDAD BOLÍVAR,5.8564166667,-75.9145,15/09/1971,
26197040,SAN ANTONIO BRASIL ,ANTIOQUIA,CIUDAD BOLÍVAR,5.8333333333,-75.95,15/09/1970,15/12/1972
26200120,OTRAMINA    [26200120],ANTIOQUIA,TITIRIBÍ,6.0729444444,-75.7945833333,15/10/1970,
26200130,BOLOMBOLO    [26200130],ANTIOQUIA,VENECIA,5.9677777778,-75.8422222222,15/05/1980,
26200140,ARMENIA    [26200140],ANTIOQUIA,ARMENIA,6.1579722222,-75.7715277778,15/04/1975,
26200150,FREDONIA    [26200150],ANTIOQUIA,FREDONIA,5.93675,-75.6851111111,15/03/1975,
26205030,FARALLONES [26205030],ANTIOQUIA,LA PINTADA,5.7833333333,-75.6166666667,15/03/1970,15/04/1983
26205040,IGUINA HDA [26205040],ANTIOQUIA,ANZÁ,6.3666666667,-75.8666666667,15/10/1978,15/10/1980
26205060,NOQUE LA [26205060],ANTIOQUIA,ANZÁ,6.4,-75.8333333333,15/04/1981,15/05/1987
26205070,PLATA LA [26205070],ANTIOQUIA,VENECIA,5.9833333333,-75.8166666667,15/11/1982,15/04/1995
26205080,ALDEA LA   [26205080],ANTIOQUIA,MEDELLÍN,6.3410555556,-75.7009444444,15/09/1990,
26207010,PTE SOTO [26207010],ANTIOQUIA,TITIRIBÍ,6.0166666667,-75.8166666667,15/09/1971,15/08/1973
26207030,PTE IGLESIAS   [26207030],ANTIOQUIA,FREDONIA,5.8299444444,-75.7055,15/07/1978,
26207040,RODADERO EL [26207040],ANTIOQUIA,VENECIA,6,-75.8,15/05/1978,10/12/2008
26207080,BOLOMBOLO AUTOM   ,ANTIOQUIA,VENECIA,5.9659444444,-75.8414722222,15/10/1971,
26207090,PASO REAL [26207090],ANTIOQUIA,SOPETRÁN,6.5166666667,-75.8166666667,15/03/1972,15/11/1978
26210070,CAICEDO    [26210070],ANTIOQUIA,CAICEDO,6.4059722222,-75.9812777778,15/10/1970,
26210080,HERRADURA LA   ,ANTIOQUIA,CONCORDIA,6.0992222222,-75.8739722222,15/10/1970,
26210090,ANZA    [26210090],ANTIOQUIA,ANZÁ,6.3031388889,-75.85925,15/10/1970,
26210110,PENALISA    [26210110],ANTIOQUIA,SALGAR,5.9349166667,-75.8611666667,15/04/1971,
26210130,GUASABRA    [26210130],ANTIOQUIA,SANTA FE DE ANTIOQUIA,6.5033333333,-75.9558333333,15/03/1975,
26210140,ALTAMIRA    [26210140],ANTIOQUIA,BETULIA,6.2185277778,-75.9455,15/04/1975,
26215010,CONCORDIA    [26215010],ANTIOQUIA,CONCORDIA,6.0395555556,-75.9195277778,15/06/1970,
26215020,CAÑAFISTO [26215020],ANTIOQUIA,SANTA FE DE ANTIOQUIA,6.4166666667,-75.8166666667,15/06/1987,15/04/2002
26217010,GALERA LA   [26217010],ANTIOQUIA,SANTA FE DE ANTIOQUIA,6.5549722222,-75.8641944444,15/11/1970,
26217040,CANGREJO EL [26217040],ANTIOQUIA,BETULIA,6.2097222222,-75.8606944444,15/05/1978,20/10/2010
26217050,CAÑAFISTO    [26217050],ANTIOQUIA,SANTA FE DE ANTIOQUIA,6.4179722222,-75.81925,15/11/1978,
26217060,AGARA [26217060],ANTIOQUIA,ANZÁ,6.35,-75.8333333333,15/11/1979,15/04/2002
26220050,CUMBRE LA [26220050],ANTIOQUIA,PEQUE,7.0333333333,-75.9333333333,15/11/1970,15/11/2004
26220060,TUNAL EL [26220060],ANTIOQUIA,SANTA FE DE ANTIOQUIA,6.5833333333,-75.8333333333,15/12/1985,15/05/1989
26220090,GIRALDO    [26220090],ANTIOQUIA,GIRALDO,6.6880555556,-75.9572222222,15/11/1970,
26220100,GRANJA LA   [26220100],ANTIOQUIA,ITUANGO,7.2496388889,-75.7340833333,15/04/1975,
26220110,STA RITA   [26220110],ANTIOQUIA,ITUANGO,7.32375,-75.6168611111,15/09/1982,
26225010,ITUANGO [26225010],ANTIOQUIA,ITUANGO,7.2,-75.7333333333,15/06/1970,15/07/1977
26225030,COTOVE HDA   [26225030],ANTIOQUIA,SANTA FE DE ANTIOQUIA,6.5339166667,-75.8273333333,15/04/1975,06/01/2016
26225040,PIUNTI HDA [26225040],ANTIOQUIA,BURITICÁ,6.7295,-75.9129722222,15/06/1970,04/02/2015
26225050,PALMAR EL [26225050],ANTIOQUIA,ITUANGO,7.1166666667,-75.6666666667,15/11/1982,15/11/1992
26225060,HDA COTOVE AUTOM  ,ANTIOQUIA,SANTA FE DE ANTIOQUIA,6.5339166667,-75.8273333333,25/11/2004,
26227010,PURGATORIO [26227010],ANTIOQUIA,BURITICÁ,6.8666666667,-75.8666666667,15/05/1980,15/11/1995
26230010,OLAYA [26230010],ANTIOQUIA,OLAYA,6.6287222222,-75.8108888889,15/10/1970,
26230020,SABANALARGA [26230020],ANTIOQUIA,SABANALARGA,6.846,-75.8148055556,15/01/1922,15/12/1966
26230110,SAN ANDRES [26230110],ANTIOQUIA,SAN ANDRÉS,6.9098333333,-75.6698611111,15/10/1970,
26230130,CRUCES ARRIBA ,ANTIOQUIA,SAN ANDRÉS,6.8871944444,-75.6096111111,15/11/1970,
26230140,PLACITA LA [26230140],ANTIOQUIA,LIBORINA,6.7208888889,-75.7580555556,15/10/1970,
26230150,MATANZAS [26230150],ANTIOQUIA,TOLEDO,7.0358333333,-75.6659444444,15/11/1970,15/04/1993
26230160,BRICENO [26230160],ANTIOQUIA,BRICEÑO,7.1052777778,-75.5116666667,15/10/1970,
26230180,LLANOS DE SAN JUAN ,ANTIOQUIA,SAN JERÓNIMO,6.427,-75.71775,15/11/1990,
26230190,ORO EL [26230190],ANTIOQUIA,SABANALARGA,6.9333333333,-75.7666666667,15/04/1975,15/10/1992
26230200,SABANALARGA [26230200],ANTIOQUIA,SABANALARGA,6.846,-75.8148055556,15/03/1975,
26230220,OCULTA LA [26230220],ANTIOQUIA,BELMIRA,6.7793888889,-75.6385833333,15/09/1983,
26230240,ABERTURA LA [26230240],ANTIOQUIA,SAN ANDRÉS,6.9001944444,-75.7048333333,15/01/1992,
26230260,PTO VALDIVIA AUTOM ,ANTIOQUIA,VALDIVIA,7.2870833333,-75.3963055556,11/04/2008,06/05/2009
26235020,VEGA LA-TAB RUBIOS ,ANTIOQUIA,SOPETRÁN,6.5333333333,-75.8,15/05/1970,15/10/1978
26235030,MATANZAS    [26235030],ANTIOQUIA,TOLEDO,7.0358333333,-75.6659444444,15/04/1993,
26237020,PENALTA [26237020],ANTIOQUIA,SAN JERÓNIMO,6.4626111111,-75.7563055556,15/04/1971,
26237040,PTO VALDIVIA AUTOM  ,ANTIOQUIA,VALDIVIA,7.2870833333,-75.3963055556,15/10/1959,
26237050,PTE PESCADERO   ,ANTIOQUIA,TOLEDO,7.0883333333,-75.6959166667,15/11/1979,
26237060,SOPETRAN [26237060],ANTIOQUIA,SOPETRÁN,6.5166666667,-75.75,15/03/1980,15/04/1996
26237080,YARUMAL [26237080],ANTIOQUIA,SAN ANDRÉS,7.0166666667,-75.65,15/03/1980,15/04/2002
26237090,VALLE EL [26237090],ANTIOQUIA,BRICEÑO,7.0666666667,-75.6833333333,15/03/1980,10/12/2008
26237100,OLAYA [26237100],ANTIOQUIA,OLAYA,6.6449444444,-75.8261666667,15/10/1981,
26237110,CEDRAL EL [26237110],ANTIOQUIA,SAN JOSÉ DE LA MONTAÑA,6.8804722222,-75.6724722222,15/05/1980,
26237130,LLANOS DE SAN JUAN ,ANTIOQUIA,SAN JERÓNIMO,6.4333333333,-75.7166666667,15/11/1990,15/12/1990
26240050,UNION LA HDA [26240050],ANTIOQUIA,CÁCERES,7.7166666667,-75.35,15/05/1970,15/03/1984
26240060,MANIZALES [26240060],ANTIOQUIA,CÁCERES,7.8366666667,-75.415,15/05/1970,
26240070,ALTO EL MUÑECO ,ANTIOQUIA,TARAZÁ,7.6,-75.4166666667,15/05/1970,15/08/1984
26240080,HOYO RICO [26240080],ANTIOQUIA,TARAZÁ,7.3833333333,-75.45,15/03/1975,15/05/1989
26240090,PTO BELGICA [26240090],ANTIOQUIA,CÁCERES,7.6683055556,-75.2844444444,15/01/1977,
26240100,GUARUMO-LA LUCHA ,ANTIOQUIA,CÁCERES,7.8629166667,-75.2149166667,15/05/1970,
26240120,PTO VALDIVIA [26240120],ANTIOQUIA,VALDIVIA,7.3,-75.4333333333,15/03/1975,15/07/1985
26240150,PTO VALDIVIA [26240150],ANTIOQUIA,VALDIVIA,7.2860277778,-75.3965277778,15/10/1979,
26240160,COQUERA LA   [26240160],ANTIOQUIA,CAUCASIA,7.9621388889,-75.196,15/03/1980,
26240170,PLAYALTA [26240170],ANTIOQUIA,TARAZÁ,7.5625555556,-75.4485555556,15/11/1982,
26245020,MARY LAND [26245020],ANTIOQUIA,CÁCERES,7.5,-75.4166666667,15/05/1970,15/04/1973
26245030,TARAZA [26245030],ANTIOQUIA,TARAZÁ,7.5833333333,-75.4,15/03/1975,15/06/1985
26245040,JHB CAUCASIA   [26245040],ANTIOQUIA,CAUCASIA,8.0056388889,-75.1469444444,13/04/2008,
26247010,PALMIRA HDA   [26247010],ANTIOQUIA,CÁCERES,7.7967777778,-75.3725277778,15/09/1971,
26247020,LA COQUERA AUTOM  ,ANTIOQUIA,CAUCASIA,7.9621388889,-75.196,15/08/1966,
26247030,APAVI    [26247030],ANTIOQUIA,TARAZÁ,7.4709722222,-75.3280277778,15/10/1971,
26247040,BUENOS AIRES [26247040],ANTIOQUIA,CÁCERES,7.7333333333,-75.4333333333,15/11/1972,15/10/1975
26247050,LAS CAMELIAS AUTOM  ,ANTIOQUIA,TARAZÁ,7.5825277778,-75.4200555556,15/05/1973,
26250010,CACERES [26250010],ANTIOQUIA,CÁCERES,7.5790555556,-75.3478333333,15/06/1931,15/11/1966
26250020,TRINIDAD LA HDA ,ANTIOQUIA,CÁCERES,7.6833333333,-75.2333333333,15/05/1970,15/12/1976
26250030,CACERES [26250030],ANTIOQUIA,CÁCERES,7.5790555556,-75.3478333333,15/05/1970,
26250060,PTO RAUDAL [26250060],ANTIOQUIA,VALDIVIA,7.3699166667,-75.3276111111,15/10/1970,
26250090,PIAMONTE [26250090],ANTIOQUIA,CÁCERES,7.7833333333,-75.2,15/03/1975,15/10/1987
26250100,STA CRUZ HDA [26250100],ANTIOQUIA,CÁCERES,7.5,-75.25,15/07/1983,15/02/1984
26250110,BARRO BLANCO ,ANTIOQUIA,TARAZÁ,7.4741111111,-75.2643888889,15/03/1984,
26255020,STA ISABEL   [26255020],ANTIOQUIA,VALDIVIA,7.1572777778,-75.4422222222,15/04/1970,
26255030,STA ISABEL VALDIVIA  ,ANTIOQUIA,VALDIVIA,7.1572777778,-75.4422222222,21/11/2004,
26255040,CACAOTERAS DEL DIQ ,ANTIOQUIA,CAUCASIA,7.9833333333,-75.1166666667,15/08/1968,10/12/2008
27010160,GOMEZ PLATA [27010160],ANTIOQUIA,GÓMEZ PLATA,6.6778055556,-75.2198055556,15/01/1922,15/12/1955
27010680,MACARENA LA HDA ,ANTIOQUIA,REMEDIOS,7.05,-74.85,15/10/1974,15/03/1978
27010770,CHUSCAL EL   [27010770],ANTIOQUIA,HELICONIA,6.1783333333,-75.7050833333,15/08/1970,
27010780,BOQUERON [27010780],ANTIOQUIA,MEDELLÍN,6.35,-75.6833333333,15/08/1970,15/11/1990
27010790,MESETA LA-SENA ,ANTIOQUIA,CALDAS,6.0333333333,-75.6166666667,15/08/1970,15/10/1984
27010800,MESETA LA SN PEDRO ,ANTIOQUIA,BELLO,6.3997222222,-75.6072222222,15/08/1970,
27010810,STA HELENA [27010810],ANTIOQUIA,MEDELLÍN,6.1968888889,-75.51675,15/08/1970,
27010820,CUCHILLA LA [27010820],ANTIOQUIA,GIRARDOTA,6.3683333333,-75.4536111111,15/08/1970,
27010830,SAN ISIDRO [27010830],ANTIOQUIA,ENTRERRIOS,6.5632222222,-75.51575,15/08/1970,
27010840,SAN PABLO [27010840],ANTIOQUIA,SANTA ROSA DE OSOS,6.602,-75.2465277778,15/10/1970,
27010850,AMALFI [27010850],ANTIOQUIA,AMALFI,6.9055555556,-75.0772222222,15/10/1970,
27010860,NORMANDIA HDA ,ANTIOQUIA,YOLOMBÓ,6.7,-75.1166666667,15/10/1970,15/04/1981
27010870,BELMIRA [27010870],ANTIOQUIA,BELMIRA,6.6091666667,-75.6683333333,15/11/1970,
27010880,MONTAÑITAS [27010880],ANTIOQUIA,SANTA ROSA DE OSOS,6.7028611111,-75.3922222222,15/10/1970,
27010890,CUEVA SANTA [27010890],ANTIOQUIA,AMALFI,6.959,-75.0383611111,15/10/1970,
27010900,GOMEZ PLATA [27010900],ANTIOQUIA,GÓMEZ PLATA,6.6778055556,-75.2198055556,15/10/1970,
27010960,MONOS HDA [27010960],ANTIOQUIA,AMALFI,6.8986111111,-74.9021388889,15/03/1978,
27011100,BRISAS LAS [27011100],ANTIOQUIA,SEGOVIA,7.1588055556,-74.8218333333,15/03/1983,
27011110,ASTILLEROS [27011110],ANTIOQUIA,MEDELLÍN,6.2573055556,-75.6758611111,15/10/1990,
27011120,IGUANA LA [27011120],ANTIOQUIA,MEDELLÍN,6.3162777778,-75.6575277778,15/10/1990,
27011230,SAN ANTONIO [27011230],ANTIOQUIA,YOLOMBÓ,6.6208333333,-75.1516666667,15/10/1999,
27011270,LAURELES-MEDELLIN    ,ANTIOQUIA,MEDELLÍN,6.2464166667,-75.5910555556,01/06/2011,
27015070,A.OLAYA HERRERA   ,ANTIOQUIA,MEDELLÍN,6.2206111111,-75.5889722222,15/09/1940,
27015090,TULIO OSPINA   [27015090],ANTIOQUIA,BELLO,6.3196944444,-75.55325,15/09/1950,
27015110,ARAGON    [27015110],ANTIOQUIA,SANTA ROSA DE OSOS,6.7810833333,-75.5608888889,15/05/1970,
27015120,PIEDRAS BLANCAS ,ANTIOQUIA,MEDELLÍN,6.3,-75.5,15/12/1970,15/12/1981
27015150,PROGRESO EL HDA  ,ANTIOQUIA,BARBOSA,6.4474722222,-75.3971666667,15/04/1973,
27015160,CLARA LA [27015160],ANTIOQUIA,CALDAS,6.0666666667,-75.6,15/03/1975,15/09/1978
27015190,GUAYABITO    [27015190],ANTIOQUIA,SANTO DOMINGO,6.5403888889,-75.14675,15/05/1970,
27015200,NORMANDIA HDA ,ANTIOQUIA,YOLOMBÓ,6.7833333333,-75.1166666667,15/04/1981,15/09/1998
27015210,VIVERO EL [27015210],ANTIOQUIA,GUARNE,6.2833333333,-75.5,15/07/1982,15/06/1996
27015260,SALADA LA   [27015260],ANTIOQUIA,CALDAS,6.0483611111,-75.6246666667,15/07/1984,
27015270,JARDIN BOTANICO  ,ANTIOQUIA,MEDELLÍN,6.2669166667,-75.5631666667,15/05/2002,18/08/2009
27015280,PMO BELMIRA AUTOM  ,ANTIOQUIA,BELMIRA,6.6320277778,-75.6444444444,23/11/2004,
27015290,PAJARITO AUTOM   ,ANTIOQUIA,MEDELLÍN,6.2863333333,-75.6127916667,17/11/2005,06/01/2016
27015300,VILLANUEVA VILLAHERMOSA   ,ANTIOQUIA,MEDELLÍN,6.2532777778,-75.55,08/09/2005,06/01/2016
27015310,METROMEDELLIN    ,ANTIOQUIA,MEDELLÍN,6.32975,-75.5521111111,01/07/2005,
27015320,ARAGON AUTOM   ,ANTIOQUIA,SANTA ROSA DE OSOS,6.534,-75.827,28/08/2004,
27015330,OLAYA HERRERA - ,ANTIOQUIA,MEDELLÍN,6.2206111111,-75.5889805556,12/05/2014,
27015502,SOLMAFORO MEDELLIN,ANTIOQUIA,MEDELLÍN,6.2451305556,-75.5769777778,03/12/2015,
27017480,BOCAS DE CANA ,ANTIOQUIA,ANORÍ,7.4,-74.9166666667,15/10/1974,15/02/1976
27020040,ANGOSTURA [27020040],ANTIOQUIA,ANGOSTURA,6.8830555556,-75.3324722222,15/01/1922,15/12/1958
27020160,TENCHE LA RISARALD ,ANTIOQUIA,ANORÍ,7.35,-75.0333333333,15/07/1970,15/02/1984
27020170,CARMEN EL HDA ,ANTIOQUIA,ANORÍ,7.1471944444,-75.0797777778,15/10/1970,
27020180,ANORI [27020180],ANTIOQUIA,ANORÍ,7.0719166667,-75.1505277778,15/10/1970,15/08/1988
27020190,YARUMAL [27020190],ANTIOQUIA,YARUMAL,6.9559722222,-75.4155555556,15/10/1970,
27020200,CEDENO [27020200],ANTIOQUIA,YARUMAL,7.0707222222,-75.3555833333,15/11/1970,
27020210,ANGOSTURA [27020210],ANTIOQUIA,ANGOSTURA,6.8830555556,-75.3324722222,15/10/1970,
27020220,LLANOS D CUIBA LOS ,ANTIOQUIA,YARUMAL,6.8136111111,-75.4838611111,15/11/1970,
27020260,TESORO EL [27020260],ANTIOQUIA,VALDIVIA,7.2467777778,-75.3021944444,15/09/1975,
27020280,MARGARITAS LAS ,ANTIOQUIA,TARAZÁ,7.25,-75.2666666667,15/11/1974,15/07/1983
27025010,MONTEFRIO [27025010],ANTIOQUIA,ANORÍ,6.95,-75.2,15/07/1970,15/05/1973
27025020,CHARCON LIBERIA ,ANTIOQUIA,ANORÍ,7.3833333333,-75,15/06/1970,15/10/1985
27025030,ANORI    [27025030],ANTIOQUIA,ANORÍ,7.0719166667,-75.1505277778,15/05/1975,
27027060,BRISAS DEL NECHI ,ANTIOQUIA,YARUMAL,6.9396944444,-75.3808333333,15/12/1974,
27027070,TRES Y MEDIO [27027070],ANTIOQUIA,ANORÍ,7.4,-74.95,15/11/1974,15/01/1990
27027080,MEDIA LUNA [27027080],ANTIOQUIA,CAMPAMENTO,7.2030555556,-75.3189166667,15/11/1974,20/10/2010
27027090,PTE ANORI [27027090],ANTIOQUIA,ANORÍ,7.2019444444,-75.3157777778,15/11/1974,28/08/2014
27030030,ZARAGOZA [27030030],ANTIOQUIA,ZARAGOZA,7.4862222222,-74.8723888889,15/02/1922,15/09/1967
27030040,GUAMO EL [27030040],ANTIOQUIA,NECHÍ,7.9044166667,-74.814,15/05/1970,
27030050,BAGRE EL [27030050],ANTIOQUIA,EL BAGRE,7.6166666667,-74.8,15/05/1970,15/05/1987
27030060,AMACERI [27030060],ANTIOQUIA,EL BAGRE,7.75,-74.7333333333,15/05/1970,15/05/1987
27030080,CRUZADA LA [27030080],ANTIOQUIA,REMEDIOS,7.0680555556,-74.7150555556,15/06/1970,
27030090,BOSQUE EL [27030090],ANTIOQUIA,ZARAGOZA,7.3193055556,-74.8393333333,15/06/1970,
27030130,LONDRE EL [27030130],ANTIOQUIA,EL BAGRE,7.4666666667,-74.65,15/11/1974,15/05/1987
27030140,PALMA DE COCO LA ,ANTIOQUIA,SEGOVIA,7.2361111111,-74.8079444444,15/10/1974,
27030150,ASI ES LA VIDA [27030150],ANTIOQUIA,EL BAGRE,7.7333333333,-74.5833333333,15/10/1974,15/05/1987
27030160,BUENAVISTA [27030160],ANTIOQUIA,EL BAGRE,7.4333333333,-74.6666666667,15/10/1974,15/05/1987
27030190,PATIO BONITO 2 [27030190],ANTIOQUIA,SEGOVIA,7.2166666667,-74.8333333333,15/10/1974,15/03/1983
27030210,ZARAGOZA [27030210],ANTIOQUIA,ZARAGOZA,7.4862222222,-74.8723888889,15/07/1970,
27030220,ORIENTE EL [27030220],ANTIOQUIA,EL BAGRE,7.5666666667,-74.6666666667,15/11/1974,15/05/1987
27030230,MONTEVERDE [27030230],ANTIOQUIA,SEGOVIA,7.35,-74.65,15/10/1970,15/03/1971
27030240,PTE BAGRE [27030240],ANTIOQUIA,REMEDIOS,7.1166666667,-74.6,15/04/1981,15/08/1999
27035010,MONTES NEGROS ,ANTIOQUIA,ZARAGOZA,7.5,-74.7166666667,15/05/1970,15/11/1973
27035020,BOQUETE EL [27035020],ANTIOQUIA,SEGOVIA,7.1333333333,-74.65,15/07/1970,15/04/1974
27035030,STA MARGARITA ,ANTIOQUIA,EL BAGRE,7.7333333333,-74.7666666667,15/05/1970,15/04/1980
27037010,LA ESPERANZA NECHI  ,ANTIOQUIA,NECHÍ,8.0301111111,-74.7855555556,09/03/1975,
27037020,RETIRO EL [27037020],ANTIOQUIA,ZARAGOZA,7.5615833333,-74.8051944444,15/04/1973,
27037030,SAN JUAN NECHI AUTOM ,ANTIOQUIA,ZARAGOZA,7.475,-74.9208333333,15/05/1976,
27040020,ALTO DEL INDIO ,ANTIOQUIA,ZARAGOZA,7.531,-74.95275,15/05/1970,
27040030,ESMERALDA LA [27040030],ANTIOQUIA,CAUCASIA,7.7511111111,-74.8530555556,15/05/1970,
27040040,NECHI [27040040],ANTIOQUIA,NECHÍ,8.0971666667,-74.7694444444,15/11/2006,
27045020,CASERI    [27045020],ANTIOQUIA,CAUCASIA,7.8117222222,-74.9359722222,15/05/1970,
27047010,BAGRE EL [27047010],ANTIOQUIA,EL BAGRE,7.6166666667,-74.8,15/04/1975,15/08/1993
29045150,SAIZA AUTOMATICA ,CÓRDOBA,TIERRALTA,7.7460277778,-76.4325,15/11/2002,10/08/2010
56010020,AMARGAL [56010020],CHOCÓ,NUQUÍ,5.5971805556,-77.4967,15/03/1993,15/10/1997
56010030,CUPICA [56010030],CHOCÓ,BAHÍA SOLANO ,6.7065555556,-77.4906111111,15/10/1997,
56010040,NUQUI [56010040],CHOCÓ,NUQUÍ,5.7080555556,-77.2658333333,15/06/2000,
56010050,ARUSI    [56010050],CHOCÓ,NUQUÍ,5.5957777778,-77.4756111111,01/03/2010,
56015010,PANAMERICANA [56015010],CHOCÓ,BAHÍA SOLANO ,6.2233333333,-77.4044444444,15/01/1963,
56015030,AMARGAL [56015030],CHOCÓ,NUQUÍ,5.5708333333,-77.5027777778,15/10/1997,19/04/2010
56019010,BAHIA SOLANO AUTOMATICA ,CHOCÓ,BAHÍA SOLANO ,6.2686388889,-77.4331666667,24/11/2005,20/11/2008
12030010,SAN JUAN DE URABA ,ANTIOQUIA,SAN JUAN DE URABÁ,8.7552222222,-76.5330555556,15/04/1972,
12030020,CARMELO EL   [12030020],ANTIOQUIA,ARBOLETES,8.6169444444,-76.3813888889,15/03/1972,
12037010,CANDELARIA LA [12037010],ANTIOQUIA,ARBOLETES,8.6597222222,-76.4458333333,15/06/1977,
12037020,LAJA LA HDA [12037020],ANTIOQUIA,SAN JUAN DE URABÁ,8.7166666667,-76.4833333333,15/05/1977,15/04/1995
12037030,CARMELO EL   [12037030],ANTIOQUIA,ARBOLETES,8.6172222222,-76.3852777778,15/05/1977,
12040010,JARAMAGAL    [12040010],CÓRDOBA,PUERTO ESCONDIDO,8.9008333333,-76.2208333333,15/10/1973,
12040020,CANALETE [12040020],CÓRDOBA,CANALETE,8.7869444444,-76.2355555556,15/01/1959,
12045010,ARBOLETES    [12045010],ANTIOQUIA,ARBOLETES,8.8469444444,-76.4319444444,15/03/1972,
12045020,CRISTO REY   [12045020],CÓRDOBA,PUERTO ESCONDIDO,9.0711111111,-76.2244444444,15/10/1973,
12047010,CANALETE [12047010],CÓRDOBA,CANALETE,8.7869722222,-76.2364166667,15/09/1987,
12065501,SOLMAFORO CARTAGENA	,BOLÍVAR,CARTAGENA DE INDIAS,10.4200277778,-75.5511388889,03/12/2015,
12067001,GUAJARO EMBALSE AUT ,ATLÁNTICO,REPELÓN,10.5205555556,-75.0962777778,20/04/2016,
13010010,MOLINILLO [13010010],CÓRDOBA,TIERRALTA,7.6833333333,-76.05,15/06/1990,15/03/1999
13010020,TUCURA [13010020],CÓRDOBA,TIERRALTA,7.9333333333,-76.2666666667,15/08/1959,15/09/1973
13010040,FLECHA LA [13010040],CÓRDOBA,TIERRALTA,7.6333333333,-75.9666666667,15/06/1990,15/03/1999
13010050,URRA SANDUBO ,CÓRDOBA,TIERRALTA,7.7515,-76.2277777778,25/03/2009,29/09/2010
13015020,TUCURA [13015020],CÓRDOBA,TIERRALTA,7.9666666667,-76.25,15/11/1991,15/10/1996
13015030,CAMPO BELLO [13015030],CÓRDOBA,TIERRALTA,7.9833333333,-76.2333333333,15/12/1996,31/03/2008
13015040,REPRESA URRA   [13015040],CÓRDOBA,TIERRALTA,8.0141666667,-76.2030555556,15/11/2004,
13017010,DESPENSA LA [13017010],CÓRDOBA,TIERRALTA,7.8666666667,-76.2833333333,15/10/1965,15/12/1998
13017020,LIMON EL [13017020],CÓRDOBA,TIERRALTA,7.8333333333,-76.2666666667,15/03/1966,15/03/1999
13017040,SAN CONALITO [13017040],CÓRDOBA,TIERRALTA,7.6833333333,-76.1166666667,15/06/1990,15/12/1998
13017050,URRA SANDUBO ,CÓRDOBA,TIERRALTA,7.7515,-76.2277777778,25/03/2009,29/09/2010
13020010,DESPENSA LA [13020010],CÓRDOBA,TIERRALTA,7.8833333333,-76.3,15/01/1966,15/06/1990
13020020,CIELO EL [13020020],CÓRDOBA,TIERRALTA,7.9166666667,-76.4166666667,15/09/1973,15/02/2002
13020040,SAIZA [13020040],CÓRDOBA,TIERRALTA,7.7,-76.4833333333,15/06/1990,15/02/2002
13025010,SAIZA [13025010],CÓRDOBA,TIERRALTA,7.7,-76.4833333333,15/10/1974,15/02/1976
13025020,ESMERALDA LA [13025020],CÓRDOBA,TIERRALTA,7.8333333333,-76.25,15/10/1974,15/01/1975
13025030,DESPENSA LA [13025030],CÓRDOBA,TIERRALTA,7.8833333333,-76.3,15/06/1990,15/05/1996
13027010,ESMERALDA LA [13027010],CÓRDOBA,TIERRALTA,7.75,-76.25,15/06/1990,15/12/2001
13027020,PTO MANGO [13027020],CÓRDOBA,TIERRALTA,7.6166666667,-76.3,15/06/1990,15/05/1994
13027030,CANAFINA [13027030],CÓRDOBA,TIERRALTA,7.85,-76.3166666667,15/06/1990,15/12/1998
13027040,CAÑO BRAVO - AUT ,CÓRDOBA,AYAPEL,8.2358472222,-74.9604388889,02/01/2017,
13030010,TIERRALTA    [13030010],CÓRDOBA,TIERRALTA,8.1866666667,-76.0530555556,15/02/1959,
13030030,URRA 1 [13030030],CÓRDOBA,TIERRALTA,7.9833333333,-76.2333333333,15/05/1983,15/05/1996
13035010,PTO NUEVO [13035010],CÓRDOBA,TIERRALTA,7.95,-76.2833333333,15/09/1965,15/12/1991
13035501,APTO LOS GARZONES ,CÓRDOBA,MONTERÍA,8.8258333333,-75.8251388889,06/02/2015,
13037010,ANGOSTURA DE URRA ,CÓRDOBA,TIERRALTA,8,-76.25,15/08/1959,15/12/1998
13037020,PALOMAS LAS [13037020],CÓRDOBA,MONTERÍA,8.45,-76.0166666667,15/08/1964,15/01/1991
13037030,PTO SALGAR AUTOMATICA,CÓRDOBA,TIERRALTA,8.1,-76.1,15/04/1966,15/05/1978
13037040,CARRIZOLA AUTOM   ,CÓRDOBA,TIERRALTA,8.1608333333,-76.0955555556,15/06/1990,
13040010,QUIMARI [13040010],CÓRDOBA,TIERRALTA,8.0666666667,-76.3333333333,15/09/1973,15/02/2002
13040030,PEZVAL    [13040030],CÓRDOBA,VALENCIA,8.2622222222,-76.1691666667,15/09/1990,
13045010,JARAGUAY [13045010],CÓRDOBA,VALENCIA,8.3,-76.0833333333,15/02/1966,15/02/1988
13047010,RUSIA [13047010],CÓRDOBA,VALENCIA,8.2833333333,-76.2666666667,15/11/1989,15/01/1991
13047020,NUBES LAS [13047020],CÓRDOBA,VALENCIA,8.3166666667,-76.1,15/11/1989,15/01/1991
13047030,TIERRALTA [13047030],CÓRDOBA,TIERRALTA,8.1870555556,-76.0646111111,15/06/1990,18/09/2011
13047040,TORO EL [13047040],CÓRDOBA,TIERRALTA,8.1134833333,-76.1279361111,15/06/1990,18/06/2014
13047050,PASACABALLOS [13047050],CÓRDOBA,TIERRALTA,8.05,-76.2,15/06/1990,15/09/2005
13050010,STA LUCIA   [13050010],CÓRDOBA,MONTERÍA,8.8486111111,-76.0452777778,15/08/1965,
13050020,STA CRUZ HDA [13050020],CÓRDOBA,MONTERÍA,8.6675,-76.1238888889,15/10/1973,
13050030,LOMA VERDE [13050030],CÓRDOBA,MONTERÍA,8.5019444444,-76.1752777778,15/12/1965,
13050040,TRES PIEDRAS [13050040],CÓRDOBA,MONTERÍA,8.45,-75.9666666667,15/01/1959,15/10/1973
13055010,VORAGINE LA [13055010],CÓRDOBA,MONTERÍA,8.6,-76.0333333333,15/09/1965,15/06/1979
13055020,TENERIFE [13055020],CÓRDOBA,MONTERÍA,8.6833333333,-76.1166666667,15/01/1966,15/12/1967
13055030,GALAN [13055030],CÓRDOBA,MONTERÍA,8.6591666667,-75.9725,15/06/1979,28/08/2014
13055040,INCODER AUTOM   ,CÓRDOBA,MONTERÍA,8.7469444444,-75.9138888889,17/11/2004,
13057010,NUEVA COLOMBIA   ,CÓRDOBA,MONTERÍA,8.4994444444,-75.9786111111,15/06/1990,
13060010,SAN ANTERITO   [13060010],CÓRDOBA,MONTERÍA,8.5577777778,-75.8611111111,15/09/1973,
13060020,BUENOS AIRES   [13060020],CÓRDOBA,MONTERÍA,8.4758333333,-75.7652777778,15/08/1965,
13060030,CARAMELO [13060030],CÓRDOBA,TIERRALTA,8.2661111111,-75.9038888889,15/12/1965,
13065010,TORPEZA LA [13065010],CÓRDOBA,MONTERÍA,8.4333333333,-75.9666666667,15/01/1965,15/05/1979
13065020,MARACAYO    [13065020],CÓRDOBA,MONTERÍA,8.4105555556,-75.8844444444,15/05/1979,
13067010,TRES PIEDRAS [13067010],CÓRDOBA,MONTERÍA,8.4895,-75.9531666667,15/05/1979,21/09/2011
13067020,MONTERIA  AUTOMATICA ,CÓRDOBA,MONTERÍA,8.7516111111,-75.8924166667,15/02/1963,
13067030,STA HELENA [13067030],CÓRDOBA,MONTERÍA,8.5654,-75.9659083333,15/03/1963,28/08/2014
13067040,MARACAYO    [13067040],CÓRDOBA,MONTERÍA,8.4102777778,-75.895,15/08/1964,
13067050,TRES PALMAS [13067050],CÓRDOBA,MONTERÍA,8.5055555556,-75.9522222222,15/09/1979,18/06/2014
13067060,JUNQUILLO [13067060],CÓRDOBA,MONTERÍA,8.4079722222,-75.9120833333,15/05/1979,18/06/2014
13067070,PTE EL [13067070],CÓRDOBA,MONTERÍA,8.4333333333,-75.95,15/05/1979,15/05/1985
13067080,BETANCI [13067080],CÓRDOBA,MONTERÍA,8.5040277778,-75.9636944444,15/11/1990,
13070010,LIMON EL   [13070010],CÓRDOBA,SAN BERNARDO ,9.3361111111,-75.9375,15/10/1964,
13070020,MOMIL    [13070020],CÓRDOBA,MOMIL,9.2344444444,-75.6880555556,15/10/1973,
13070030,SABANA NUEVA ,CÓRDOBA,SAN PELAYO,9.0333333333,-75.8333333333,15/10/1973,15/06/2002
13070040,RABOLARGO [13070040],CÓRDOBA,CERETÉ,8.9506111111,-75.7424722222,15/01/1963,
13070050,CERETE [13070050],CÓRDOBA,CERETÉ,8.8903333333,-75.78625,15/01/1963,
13070060,CGA DE ORO,CÓRDOBA,CIÉNAGA DE ORO,8.8725,-75.6258333333,15/09/1958,
13070070,BOCA DE LA CEIBA ,CÓRDOBA,MONTERÍA,8.8299166667,-75.8561111111,15/01/1970,
13070080,SIGLO EL [13070080],CÓRDOBA,CIÉNAGA DE ORO,8.95,-75.5666666667,15/05/1986,15/02/2002
13070090,SAN CARLOS   [13070090],CÓRDOBA,SAN CARLOS,8.7905555556,-75.7013888889,15/01/1964,
13070100,STA ROSA [13070100],CÓRDOBA,SAN CARLOS,8.7411111111,-75.6014166667,15/01/1963,
13070110,CARRIZAL [13070110],CÓRDOBA,SAN CARLOS,8.6819444444,-75.7535277778,15/08/1965,
13070120,CALLEMAR    [13070120],CÓRDOBA,SAN CARLOS,8.6975,-75.6777777778,15/06/1963,
13070130,CALIFORNIA [13070130],CÓRDOBA,MONTERÍA,8.7833333333,-75.8333333333,15/08/1974,15/02/2002
13070140,COROZA 1 [13070140],CÓRDOBA,CERETÉ,8.8333333333,-75.75,15/08/1974,15/02/2002
13070150,MOCARI [13070150],CÓRDOBA,MONTERÍA,8.8,-75.8666666667,15/08/1974,15/05/2002
13070160,BERASTEGUI [13070160],CÓRDOBA,CIÉNAGA DE ORO,8.8833333333,-75.7,15/08/1978,15/02/2002
13070170,BUENOS AIRES 1  [13070170],CÓRDOBA,SAN CARLOS,8.7727777778,-75.7497222222,15/08/1978,
13070180,CARRILLO [13070180],CÓRDOBA,SAN PELAYO,8.9844444444,-75.8317777778,15/03/1979,
13070190,COROZA 2   [13070190],CÓRDOBA,SAN CARLOS,8.8047222222,-75.765,15/08/1974,
13070200,COROCITO [13070200],CÓRDOBA,SAN PELAYO,8.95,-75.8,15/03/1979,15/02/2002
13070210,COTORRA [13070210],CÓRDOBA,COTORRA,9.0333333333,-75.7833333333,15/03/1979,15/02/2002
13070220,FLOR DEL SINU [13070220],CÓRDOBA,MONTERÍA,8.8166666667,-75.85,15/08/1974,15/02/2002
13070230,HORIZONTE [13070230],CÓRDOBA,MONTERÍA,8.7666666667,-75.8666666667,15/08/1974,15/02/2002
13070240,CERRO BAHIA [13070240],CÓRDOBA,LORICA,9.3,-75.85,15/11/1974,15/06/2002
13070250,TRAPICHE EL [13070250],CÓRDOBA,LORICA,9.3166666667,-75.8833333333,15/05/1979,15/06/2002
13070260,LAMAS 3 [13070260],CÓRDOBA,MONTERÍA,8.7333333333,-75.85,15/08/1978,15/05/2002
13070270,MONTERIA [13070270],CÓRDOBA,MONTERÍA,8.8265277778,-75.8418333333,15/08/1974,18/08/2010
13070280,SABANAL    [13070280],CÓRDOBA,MONTERÍA,8.7886111111,-75.7513888889,15/06/1978,
13070290,TAMPA    [13070290],CÓRDOBA,MONTERÍA,8.6247222222,-75.7672222222,15/05/1978,
13070300,CHIMA [13070300],CÓRDOBA,CHIMA,9.15,-75.6166666667,15/09/1958,15/10/1973
13070310,CHIMA [13070310],CÓRDOBA,CHIMA,9.15,-75.6166666667,15/11/1965,15/05/1971
13070320,CHIMA [13070320],CÓRDOBA,CHIMA,9.15075,-75.6220833333,15/06/1965,15/11/1969
13070330,ICOTEAS LAS [13070330],CÓRDOBA,COTORRA,9.05,-75.7666666667,15/11/1974,15/02/1977
13070340,PALMA DE VINO ,CÓRDOBA,MONTERÍA,8.7333333333,-75.8,15/08/1978,15/05/2002
13070380,CERETE [13070380],CÓRDOBA,CERETÉ,8.8850833333,-75.7974166667,15/04/1954,15/12/1960
13070420,CNO EL MUERTO ,CÓRDOBA,LORICA,9.3,-75.85,15/10/1964,15/10/1973
13070430,VENECIA [13070430],CÓRDOBA,SAN ANDRÉS DE ,9.1952777778,-75.5411111111,15/08/1987,
13070440,VILLA MARCELA ,CÓRDOBA,SAN ANTERO,9.3522222222,-75.7188888889,15/07/1988,
13070450,AGUAS MOHOSAS   ,CÓRDOBA,SAN ANDRÉS DE ,9.2511111111,-75.4916666667,15/08/1986,
13070520,MOMIL [13070520],CÓRDOBA,MOMIL,9.2388888889,-75.6763888889,15/02/1963,
13075010,CHIMA [13075010],CÓRDOBA,CHIMA,9.15075,-75.6220833333,15/10/1973,
13075020,SALADO EL [13075020],CÓRDOBA,CIÉNAGA DE ORO,8.9138888889,-75.5822222222,15/10/1964,
13075030,TURIPANA [13075030],CÓRDOBA,CERETÉ,8.8395277778,-75.8018888889,15/05/1960,
13075040,APTO BERASTEGUI ,CÓRDOBA,CIÉNAGA DE ORO,8.8833333333,-75.6666666667,15/01/1944,15/10/1977
13075050,UNIV DE CORDOBA ,CÓRDOBA,MONTERÍA,8.7938888889,-75.8615277778,15/06/1979,
13075060,MONTERIA [13075060],CÓRDOBA,MONTERÍA,8.75,-75.8833333333,15/01/1956,15/10/1971
13077010,SABANA NUEVA   ,CÓRDOBA,SAN PELAYO,9.0322222222,-75.8458333333,15/02/1963,
13077030,PALMA CENTRAL ,CÓRDOBA,LORICA,9.1956111111,-75.8181944444,15/06/1953,09/09/2011
13077040,LA DOCTRINA[13077040],CÓRDOBA,LORICA,9.2972222222,-75.8927777778,15/06/1963,
13077050,EL BONGO [13077050],CÓRDOBA,SAN PELAYO,8.9375833333,-75.8564166667,15/09/1963,11/09/2011
13077060,COTOCA ABAJO   [13077060],CÓRDOBA,LORICA,9.2244444444,-75.8344444444,15/02/1970,
13077070,CIENAGA DE ORO ,CÓRDOBA,CIÉNAGA DE ORO,8.8725,-75.6258333333,15/11/1973,
13077080,HIGAL EL [13077080],CÓRDOBA,CIÉNAGA DE ORO,8.9441388889,-75.6028611111,15/11/1973,28/08/2014
13077090,BERASTEGUI [13077090],CÓRDOBA,CIÉNAGA DE ORO,8.9333333333,-75.7166666667,15/09/1985,15/01/1991
13077100,MOCARI [13077100],CÓRDOBA,MONTERÍA,8.8,-75.85,15/09/1975,15/09/2005
13077110,CASA BOMBAS [13077110],CÓRDOBA,LORICA,9.3,-75.9,15/07/1982,15/09/2005
13077120,SAN CARLOS [13077120],CÓRDOBA,SAN CARLOS,8.8,-75.7,15/09/1985,15/10/1991
13077130,POLITO EL [13077130],CÓRDOBA,CIÉNAGA DE ORO,8.9666666667,-75.7166666667,15/09/1985,15/01/1991
13077140,PTE SAN CARLOS ,CÓRDOBA,CIÉNAGA DE ORO,8.9,-75.7333333333,15/09/1985,15/01/1991
13077150,CERETE [13077150],CÓRDOBA,CERETÉ,8.8850833333,-75.7974166667,15/12/1987,
13077160,VENECIA [13077160],CÓRDOBA,SAN ANDRÉS DE ,9.1833333333,-75.5166666667,15/12/1987,15/01/1991
13077170,LORICA [13077170],CÓRDOBA,LORICA,9.2266722222,-75.8150083333,15/12/1987,
13077180,SICARA [13077180],CÓRDOBA,SAN BERNARDO ,9.35,-75.95,15/12/1987,15/01/1991
13077190,SOLEDAD [13077190],CÓRDOBA,SAN ANTERO,9.35,-75.8666666667,15/12/1987,15/09/2005
13077200,TREMENTINO [13077200],CÓRDOBA,MONTERÍA,8.7166666667,-75.7666666667,15/01/1987,15/01/1991
13077210,ESMERALDA LA [13077210],CÓRDOBA,SAN ANDRÉS DE ,9.2,-75.5666666667,15/06/1988,15/01/1991
13077220,BAJO GRANDE [13077220],CÓRDOBA,SAN ANDRÉS DE ,9.15,-75.5166666667,15/06/1988,15/01/1991
13077230,AGUAS MOHOSAS ,CÓRDOBA,SAN ANDRÉS DE ,9.2511111111,-75.4916666667,15/08/1986,15/01/1991
13077240,COCORILLA [13077240],CÓRDOBA,SAN ANTERO,9.3,-75.7833333333,15/12/1989,15/01/1991
13077250,MARIA LA [13077250],SUCRE,SINCELEJO,9.2,-75.45,15/12/1989,15/01/1991
13077260,CUESTA ABAJO [13077260],CÓRDOBA,SAN ANDRÉS DE ,9.15,-75.5166666667,15/12/1989,15/01/1991
13077270,CRUZ CHIQUITA ,CÓRDOBA,SAN ANDRÉS DE ,9.2166666667,-75.5,15/12/1989,15/01/1991
13077280,GARZONES LOS ,CÓRDOBA,MONTERÍA,8.8266388889,-75.8419722222,15/11/1990,18/06/2014
13077300,EL MONTON   [13077300],CÓRDOBA,MONTERÍA,8.8683333333,-75.8355555556,15/06/1990,
13080010,SAN ANTONIO [13080010],CÓRDOBA,SAN PELAYO,8.9358611111,-75.9533333333,15/09/1965,
13080020,LORICA [13080020],CÓRDOBA,LORICA,9.25,-75.8333333333,15/01/1958,15/10/1972
13080030,SAN ANTONIO [13080030],CÓRDOBA,SAN PELAYO,8.9333333333,-75.9833333333,15/09/1965,15/03/1971
13080040,LORICA [13080040],CÓRDOBA,LORICA,9.25,-75.8333333333,15/01/1934,15/12/1958
13080060,DOCTRINA LA [13080060],CÓRDOBA,LORICA,9.3,-75.8833333333,15/09/1964,15/03/1970
13085010,DOCTRINA LA   [13085010],CÓRDOBA,LORICA,9.2972222222,-75.8927777778,15/01/1968,
13085020,LORICA [13085020],CÓRDOBA,LORICA,9.2527222222,-75.8444166667,15/06/1964,02/10/2010
13085030,SAN BERNARDO ,CÓRDOBA,SAN BERNARDO ,9.3707777778,-75.9493055556,15/11/1964,
13085040,APTO LOS GARZONES ,CÓRDOBA,MONTERÍA,8.8258333333,-75.8251388889,15/06/1974,
13085050,LORICA  ITA AUTOMATICA ,CÓRDOBA,LORICA,9.2527222222,-75.8444166667,13/05/2005,02/10/2010
13087010,JUNIN [13087010],CÓRDOBA,SAN BERNARDO ,9.2333333333,-76.0333333333,15/12/1987,15/09/1990
13090010,SABANETICA [13090010],SUCRE,SAN ONOFRE,9.8288888889,-75.4327777778,15/04/1974,
13090020,SAN ONOFRE   [13090020],SUCRE,SAN ONOFRE,9.7541666667,-75.5380555556,15/05/1959,
13090030,BERRUGAS [13090030],SUCRE,SAN ONOFRE,9.9102777778,-75.6005555556,15/04/1974,
13090040,CHALAN [13090040],SUCRE,CHALÁN,9.5386111111,-75.3225,15/08/1974,
13090050,TOLUVIEJO    [13090050],SUCRE,TOLUVIEJO,9.4383888889,-75.4402777778,15/04/1974,
13090060,PARAISO EL   [13090060],SUCRE,COLOSÓ,9.4738888889,-75.3708333333,15/05/1986,
13090070,TOLU    [13090070],SUCRE,TOLÚ,9.5191666667,-75.5911111111,15/09/1958,
13090080,BELEN HDA [13090080],SUCRE,SAN ONOFRE,9.8194444444,-75.4102777778,15/12/1978,
13090090,STA ANGELA HDA ,SUCRE,TOLÚ,9.4852777778,-75.5125,15/02/1978,
13090100,ARGENTINA LA HDA ,SUCRE,TOLUVIEJO,9.4858333333,-75.4686111111,15/02/1978,
13090110,PALO ALTO [13090110],SUCRE,SAN ONOFRE,9.8175,-75.4183333333,15/02/1978,
13090230,PASTORA LA   [13090230],SUCRE,SINCELEJO,9.2933333333,-75.4919444444,15/11/1990,
13095010,COVEÑAS AUTOMATICA,SUCRE,TOLÚ,9.3833333333,-75.6666666667,15/02/1980,15/04/1992
13095020,PRIMATES [13095020],SUCRE,COLOSÓ,9.5301388889,-75.3513611111,15/12/1984,
13097010,TOLUVIEJO    [13097010],SUCRE,TOLUVIEJO,9.4383888889,-75.4402777778,15/08/1969,
13097020,PARAISO EL [13097020],SUCRE,COLOSÓ,9.5,-75.4,15/07/1986,15/01/1991
13097030,CARACOL [13097030],SUCRE,TOLUVIEJO,9.4,-75.4,15/12/1989,15/01/1991
13097040,CERRO BOMBA [13097040],CÓRDOBA,SAN ANDRÉS DE ,9.2666666667,-75.5,15/12/1989,15/01/1991
13097050,PASTORA LA [13097050],SUCRE,SINCELEJO,9.2666666667,-75.4833333333,15/12/1989,15/04/1991
13097060,NUMEROS LOS [13097060],SUCRE,OVEJAS,9.6333333333,-75.2166666667,15/03/1990,15/01/1991
13097070,PELONA LA [13097070],SUCRE,SAN ONOFRE,9.75,-75.5833333333,15/03/1990,15/01/1991
14010010,PIOJO [14010010],ATLÁNTICO,PIOJÓ,10.7461111111,-75.1079722222,15/04/1962,
14010020,HIBACHARO [14010020],ATLÁNTICO,PIOJÓ,10.7218888889,-75.1401111111,15/01/1963,
14010030,BAYUNCA [14010030],BOLÍVAR,CARTAGENA DE INDIAS,10.5241666667,-75.4013888889,15/05/1974,
14010040,BUENAVISTA [14010040],ATLÁNTICO,PIOJÓ,10.75,-75.0833333333,15/11/1963,15/07/1971
14010050,CANAVERAL [14010050],BOLÍVAR,TURBACO,10.405,-75.3375,15/05/1974,
14010090,PORVENIR EL [14010090],ATLÁNTICO,PIOJÓ,10.7102222222,-75.1622777778,15/07/1988,
14010100,PINTADA LA [14010100],ATLÁNTICO,TUBARÁ,10.9551111111,-74.995,15/12/1992,
14015010,GALERAZAMBA    [14015010],BOLÍVAR,SANTA CATALINA,10.7941666667,-75.2605555556,15/12/1945,
14015020,APTO RAFAEL NUNEZ ,BOLÍVAR,CARTAGENA DE INDIAS,10.44725,-75.5160277778,15/03/1941,
14015030,ESC NAVAL CIOH  ,BOLÍVAR,CARTAGENA DE INDIAS,10.4472222222,-75.5161111111,15/03/1947,
14015060,ISLAS DEL ROSARIO ,BOLÍVAR,CARTAGENA DE INDIAS,10.1833333333,-75.75,15/12/1983,15/08/1996
14015070,ISLA DEL TESORO ,BOLÍVAR,CARTAGENA DE INDIAS,10.2333333333,-75.75,15/03/1985,15/10/1990
14015080,A. RAFAEL NUÑEZ ,BOLÍVAR,CARTAGENA DE INDIAS,10.44725,-75.5160277778,06/05/2005,
14017701,MAHATES AUTOM ,BOLÍVAR,MAHATES,10.2397861111,-75.2038083333,01/04/2014,
14017702,BARRANCAVIEJA AUTOM ,BOLÍVAR,CALAMAR,10.1645277778,-74.9406666667,01/04/2014,
14019010,CARTAGENA [14019010],BOLÍVAR,CARTAGENA DE INDIAS,10.3872083333,-75.5298972222,15/09/1948,15/06/1993
14019020,ISLA DEL ROSARIO  ,BOLÍVAR,CARTAGENA DE INDIAS,10.1954166667,-75.7473055556,15/07/1989,22/07/2009
14019030,ESC NAVAL CIOH AUTOM ,BOLÍVAR,CARTAGENA DE INDIAS,10.3905638889,-75.5338305556,15/07/1991,
14019040,TAJAMAR OCCIDENTAL ,ATLÁNTICO,BARRANQUILLA,11.1063055556,-74.8547222222,19/10/2006,29/09/2010
25010010,PTO LIBERTADOR   ,CÓRDOBA,PUERTO LIBERTADOR,7.8902777778,-75.68,15/05/1989,
25010060,URE [25010060],CÓRDOBA,SAN JOSE DE URE,7.7880555556,-75.5383333333,15/11/1973,
25010080,PICA PICA   [25010080],CÓRDOBA,MONTELÍBANO,8.0311111111,-75.6830555556,15/11/1973,
25010090,MONTELIBANO [25010090],CÓRDOBA,MONTELÍBANO,8.0333333333,-75.4833333333,15/04/1963,15/10/1973
25010100,SAN FRANCISCO   ,CÓRDOBA,MONTELÍBANO,8.1291666667,-75.76,15/12/1973,
25010110,ACACIAS LAS HDA ,CÓRDOBA,PUERTO LIBERTADOR,8.0061111111,-75.6472222222,15/02/1980,
25015010,CENTRO ALEGRE ,CÓRDOBA,PLANETA RICA,8.1807777778,-75.6322777778,15/12/1973,
25017010,MONTELIBANO AUTOMATICA ,CÓRDOBA,MONTELÍBANO,7.9879722222,-75.4173333333,15/04/1973,
25017020,SAN PEDRO AUTOM  ,CÓRDOBA,PUERTO LIBERTADOR,7.8538888889,-75.7097222222,15/05/1989,
25017030,PICA PICA   [25017030],CÓRDOBA,MONTELÍBANO,8.0302777778,-75.6802777778,15/08/1995,
25020060,SAN MARCOS [25020060],SUCRE,SAN MARCOS,8.6333333333,-75.1333333333,15/10/1931,15/01/1945
25020130,SINCELEJO [25020130],SUCRE,SINCELEJO,9.3081666667,-75.4068333333,15/09/1958,18/08/2010
25020140,SAHAGUN    [25020140],CÓRDOBA,SAHAGÚN,8.9508333333,-75.4519444444,15/09/1958,
25020150,MAGANGUE [25020150],BOLÍVAR,MAGANGUÉ,9.2333333333,-74.7666666667,15/05/1968,15/12/1969
25020160,SAN MARCOS [25020160],SUCRE,SAN MARCOS,8.6333333333,-75.1333333333,15/05/1959,15/10/1973
25020170,VERACRUZ HDA ,CÓRDOBA,PLANETA RICA,8.4166666667,-75.5666666667,15/05/1959,15/11/1973
25020190,PTO ASIS [25020190],SUCRE,LOS PALMITOS,9.4319444444,-75.1291666667,15/03/1984,
25020320,CALLAO [25020320],BOLÍVAR,ZAMBRANO,9.6833333333,-74.9,15/03/1987,15/04/1987
25020340,MAJAGUAL [25020340],SUCRE,MAJAGUAL,8.5333333333,-74.65,15/01/1959,15/12/1969
25020360,SUCRE [25020360],SUCRE,SUCRE,8.8097222222,-74.7222222222,15/07/1966,15/12/1969
25020380,PINILLOS [25020380],BOLÍVAR,PINILLOS,8.9113888889,-74.4577777778,15/07/1966,15/05/1974
25020390,CHARCON [25020390],SUCRE,LOS PALMITOS,9.3972222222,-75.1558055556,15/05/1986,
25020400,LIBRA ARRIBA   [25020400],SUCRE,SAN JUAN DE BETULIA ,9.3205555556,-75.3036111111,15/06/1987,
25020430,TREMENTINO AUTOM ,CÓRDOBA,MONTERÍA,8.7166666667,-75.7666666667,10/03/2014,
25020440,SAN PEDRO AUTOM ,SUCRE,SAN PEDRO,9.4016388889,-75.0163888889,10/03/2014,
25020470,CHINU AUTOM [25020470],CÓRDOBA,CHINÚ,9.1177777778,-75.3933333333,11/12/2014,
25020480,PAJAROS  LOS [25020480],CÓRDOBA,AYAPEL,8.3405555556,-74.8677777778,15/10/1968,
25020490,SAN BENITO A VILLA ,SUCRE,SAN BENITO ABAD,8.9333333333,-75.0333333333,15/11/1966,15/10/1973
25020500,VILLA CECILIA HDA ,SUCRE,SUCRE,8.8161111111,-74.7294444444,15/05/1968,
25020520,BUENAVISTA AUTOM ,CÓRDOBA,BUENAVISTA,8.2222222222,-75.4675,10/03/2014,
25020570,PALITO [25020570],SUCRE,SAN BENITO ABAD,8.95,-75.0333333333,15/09/1971,15/02/2002
25020600,SAJONIA HDA AUTOM ,CÓRDOBA,PUEBLO NUEVO,8.4897222222,-75.6013888889,10/03/2014,
25020640,MAJAGUAL FLORI HDA ,SUCRE,MAJAGUAL,8.5333333333,-74.6166666667,15/01/1969,15/02/1974
25020700,APARTADA LA   [25020700],CÓRDOBA,LA APARTADA,8.0530555556,-75.3386111111,15/11/1973,
25020710,CINTURA    [25020710],CÓRDOBA,PUEBLO NUEVO,8.42,-75.2738888889,15/11/1973,
25020720,JOBO EL TABLON ,CÓRDOBA,SAHAGÚN,8.6372222222,-75.3836111111,15/11/1973,
25020730,CHINU    [25020730],CÓRDOBA,CHINÚ,9.1177777778,-75.3933333333,15/11/1973,
25020740,EUREKA HDA   [25020740],SUCRE,SAN MARCOS,8.6291666667,-75.0147222222,15/11/1973,
25020750,TABLITAS LAS [25020750],SUCRE,SAN BENITO ABAD,9.0113888889,-75.1688888889,15/11/1973,
25020760,SANTIAGO APOSTOL   ,SUCRE,SAN BENITO ABAD,9.0047222222,-74.9405555556,15/11/1973,
25020770,SAN PEDRO [25020770],SUCRE,SAN PEDRO,9.4030555556,-75.0527777778,15/11/1973,
25020780,CECILIA [25020780],CÓRDOBA,AYAPEL,8.4613888889,-75.0341666667,15/12/1973,
25020790,PALMARITO [25020790],SUCRE,MAJAGUAL,8.7188888889,-74.7177777778,15/03/1974,
25020820,ZAPATA [25020820],SUCRE,MAJAGUAL,8.6027777778,-74.6997222222,15/04/1974,
25020860,FRONTERA LA HDA ,SUCRE,BUENAVISTA,9.3594444444,-74.9408333333,15/05/1974,
25020870,PLAYITAS [25020870],BOLÍVAR,SAN MARTIN DE LOBA,8.8227777778,-73.9658333333,15/09/1974,
25020880,BARRANCO DE LOBA ,BOLÍVAR,BARRANCO DE LOBA,8.9466666667,-74.1105555556,15/09/1974,
25020890,CHILLOA [25020890],BOLÍVAR,MARGARITA,9.1193888889,-74.2219444444,15/09/1974,
25020900,SAN SEBASTIAN ,MAGDALENA,SAN SEBASTIÁN DE ,9.2338888889,-74.3558333333,15/01/1974,
25020910,RIONUEVO    [25020910],BOLÍVAR,BARRANCO DE LOBA,8.8097222222,-74.2544444444,15/10/1974,
25020950,SAN ANTONIO ALERTA ,BOLÍVAR,MAGANGUÉ,9.0419444444,-74.7711111111,15/04/1974,
25020960,CORDOBA [25020960],BOLÍVAR,CÓRDOBA,9.5880555556,-74.8252777778,15/04/1974,
25020980,CAIMITO [25020980],SUCRE,CAIMITO,8.7908333333,-75.1244444444,15/11/1973,
25020990,HATO NUEVO [25020990],SUCRE,COROZAL,9.1783333333,-75.1902777778,15/11/1973,
25021000,GALERAS [25021000],SUCRE,GALERAS,9.165,-75.0508333333,15/11/1973,
25021010,BUENAVISTA    [25021010],CÓRDOBA,BUENAVISTA,8.2222222222,-75.4675,15/11/1973,
25021020,TIERRA GRATA   [25021020],MAGDALENA,SANTA BÁRBARA DE ,9.4366666667,-74.7391666667,15/05/1974,
25021030,SAN ZENON [25021030],MAGDALENA,SAN ZENÓN,9.2475,-74.5019444444,15/05/1974,
25021090,STA ROSA [25021090],BOLÍVAR,SAN FERNANDO,9.0933333333,-74.3138888889,15/10/1974,
25021180,STA CRUZ   [25021180],BOLÍVAR,MOMPÓS,9.0783333333,-74.6888888889,15/03/1974,
25021200,NEGRITOS LOS [25021200],MAGDALENA,EL BANCO,9.0266666667,-74.0794444444,15/07/1976,
25021210,TREMENTINO [25021210],CÓRDOBA,SAHAGÚN,8.8179444444,-75.4741944444,15/11/1973,
25021260,BARRANCO DE YUCA ,BOLÍVAR,MAGANGUÉ,9.1738888889,-74.8508333333,15/10/1976,
25021270,CANDELARIA    [25021270],BOLÍVAR,MOMPÓS,9.0730555556,-74.5255555556,15/10/1976,
25021280,COYONGAL ALERTAS   ,BOLÍVAR,MAGANGUÉ,8.9683333333,-74.5119444444,15/03/1979,
25021290,JOLON EL   [25021290],BOLÍVAR,SAN FERNANDO,9.1013888889,-74.4088888889,15/10/1976,
25021300,LIMON EL [25021300],BOLÍVAR,CICUCO,9.2738888889,-74.6463888889,15/10/1976,
25021310,POZON EL [25021310],BOLÍVAR,HATILLO DE LOBA,9.0041666667,-74.4058333333,15/10/1976,
25021320,SUDAN EL   [25021320],BOLÍVAR,TIQUISIO (Puerto Rico),8.6433333333,-74.2122222222,15/10/1976,
25021330,GUAYMARAL [25021330],BOLÍVAR,MOMPÓS,9.1154444444,-74.6134722222,15/10/1976,
25021340,ESPERANZA LA [25021340],BOLÍVAR,CICUCO,9.2491666667,-74.7361111111,15/09/1958,
25021350,MOMPOS [25021350],BOLÍVAR,MOMPÓS,9.2627777778,-74.4355555556,15/10/1976,
25021360,CAMPO ALEGRE ,SUCRE,SUCRE,8.9247222222,-74.7119444444,15/04/1974,
25021370,SAN LUIS [25021370],SUCRE,SUCRE,8.8816666667,-74.7080555556,15/07/1976,
25021380,SAN ROQUE ALERTAS  ,MAGDALENA,EL BANCO,9.0716666667,-74.1533333333,15/05/1980,
25021450,SAJONIA HDA   [25021450],CÓRDOBA,PUEBLO NUEVO,8.4897222222,-75.6013888889,15/01/1980,
25021470,TORNO EL HDA [25021470],SUCRE,SAN MARCOS,8.5763888889,-75.0897222222,15/03/1980,
25021510,BARBOSA    [25021510],BOLÍVAR,MAGANGUÉ,9.0225,-74.6366666667,15/10/1976,
25021540,AGUADAS LAS ALERTA ,BOLÍVAR,HATILLO DE LOBA,8.9541666667,-74.055,15/11/1978,
25021550,PLANETA RICA [25021550],CÓRDOBA,PLANETA RICA,8.4166666667,-75.5666666667,15/05/1959,15/11/1973
25021560,ISLA DEL COCO [25021560],SUCRE,SUCRE,8.9027777778,-74.7986111111,15/04/1974,
25021570,FLORIDA LA [25021570],SUCRE,MAJAGUAL,8.65,-75.1666666667,15/07/1966,15/02/1974
25021660,MIRASOL [25021660],SUCRE,SAN MARCOS,8.6008333333,-75.2572222222,15/02/1990,
25025020,MONTERREY FORESTAL   ,BOLÍVAR,ZAMBRANO,9.7316666667,-74.8380555556,15/01/1987,
25025030,AYAPEL AUTOM [25025030],CÓRDOBA,AYAPEL,8.2950638889,-75.1645555556,11/12/2014,
25025040,APTO LA FLORIDA ,SUCRE,SAN MARCOS,8.7,-75.1833333333,15/01/1932,15/04/1992
25025060,MAJAGUAL [25025060],SUCRE,MAJAGUAL,8.5333333333,-74.65,15/01/1932,15/12/1937
25025080,APTO RAFAEL BARVO ,SUCRE,COROZAL,9.3338888889,-75.2830555556,15/06/1940,
25025100,APTO BARACOA ,BOLÍVAR,MAGANGUÉ,9.2819444444,-74.8452777778,15/01/1954,
25025110,MAGANGUE [25025110],BOLÍVAR,MAGANGUÉ,9.2333333333,-74.75,15/01/1971,15/09/1977
25025150,AYAPEL [25025150],CÓRDOBA,AYAPEL,8.2950638889,-75.1645555556,15/08/1967,
25025160,CUBA HDA   [25025160],CÓRDOBA,MONTELÍBANO,8.0038888889,-75.4027777778,15/04/1973,
25025170,COLOMBOY [25025170],CÓRDOBA,SAHAGÚN,8.7408611111,-75.4988333333,15/10/1973,
25025180,SAN BENITO ABAD  ,SUCRE,SAN BENITO ABAD,9.1638888889,-75.0447222222,15/11/1973,
25025190,PLANETA RICA [25025190],CÓRDOBA,PLANETA RICA,8.3993333333,-75.5837222222,15/11/1973,
25025210,PINILLOS    [25025210],BOLÍVAR,PINILLOS,8.9113888889,-74.4577777778,15/05/1974,
25025240,MAJAGUAL    [25025240],SUCRE,MAJAGUAL,8.5426944444,-74.6273333333,15/11/1974,
25025270,UNISUCRE [25025270],SUCRE,SAMPUÉS,9.3163888889,-75.3875,15/09/1983,
25025280,EL TESORO IDEAM ,SUCRE,MORROA,9.3570833333,-75.28925,02/12/2004,
25025310,PUERTA ROJA [25025310],SUCRE,SINCELEJO,9.3163888889,-75.3875,15/12/1984,
25025340,SAN MARCOS AUTOMATICA ,SUCRE,SAN MARCOS,8.5968333333,-75.1426944444,07/10/2005,
25025350,PUERTA ROJA AUTOMATICA ,SUCRE,SINCELEJO,9.3163888889,-75.3875,23/08/2004,
25025360,APTO LAS FLORES ,MAGDALENA,EL BANCO,9.0463333333,-73.9708333333,05/05/2013,
25025380,SAN BENITO AUTOM ,SUCRE,SAN BENITO ABAD,9.1638888889,-75.0447222222,14/11/2014,
25027020,EL BANCO AUTOMATICA,MAGDALENA,EL BANCO,8.9925277778,-73.9694444444,15/01/1934,
25027040,CHARCON [25027040],SUCRE,LOS PALMITOS,9.3972222222,-75.1558055556,15/04/1983,15/01/1991
25027070,PTO CORDOBA   [25027070],CÓRDOBA,BUENAVISTA,8.0680555556,-75.3613888889,15/04/1968,
25027090,LIBRA ARRIBA [25027090],SUCRE,SAN JUAN DE BETULIA ,9.3333333333,-75.1833333333,15/04/1983,15/01/1991
25027110,SUCRE    [25027110],SUCRE,SUCRE,8.8097222222,-74.7222222222,15/10/1966,
25027120,MARRALU    [25027120],CÓRDOBA,AYAPEL,8.3163888889,-75.2427777778,15/01/1977,
25027170,MANTEQUEIRA [25027170],BOLÍVAR,PINILLOS,8.8833333333,-74.4666666667,15/04/1967,15/08/1970
25027180,SAN ANTONIO [25027180],BOLÍVAR,MAGANGUÉ,9.0391666667,-74.7675277778,15/04/1967,
25027220,SAN MARCOS   [25027220],SUCRE,SAN MARCOS,8.6547222222,-75.1313888889,15/03/1968,
25027230,AYAPEL BEIRUT [25027230],CÓRDOBA,AYAPEL,8.3,-75.1166666667,15/03/1968,15/05/1972
25027240,JEGUA [25027240],SUCRE,SAN BENITO ABAD,8.9063055556,-74.9659444444,15/03/1968,
25027250,RETIRO EL [25027250],BOLÍVAR,MAGANGUÉ,9.1666666667,-74.7166666667,15/04/1968,15/03/1978
25027290,SITIO NUEVO [25027290],BOLÍVAR,MAGANGUÉ,9.0163888889,-74.6056388889,15/04/1968,28/08/2014
25027300,PTO ASIS [25027300],SUCRE,LOS PALMITOS,9.4333333333,-75.1333333333,15/03/1984,15/01/1991
25027310,REPRESA EL CALLAO ,BOLÍVAR,ZAMBRANO,9.6833333333,-74.9,15/03/1987,15/10/1996
25027320,SAN ROQUE [25027320],MAGDALENA,EL BANCO,9.0718888889,-74.1574444444,15/09/1972,
25027330,PENONCITO    [25027330],BOLÍVAR,EL PEÑÓN,8.9897222222,-73.9472222222,15/09/1972,
25027340,BEIRUT    [25027340],CÓRDOBA,AYAPEL,8.3022222222,-75.1338888889,15/05/1972,
25027350,MULAS [25027350],SUCRE,OVEJAS,9.4666666667,-75.15,15/12/1987,15/01/1991
25027360,ARMENIA    [25027360],BOLÍVAR,PINILLOS,8.8983333333,-74.39,15/03/1973,
25027370,STA ANA [25027370],MAGDALENA,SANTA ANA,9.3202527778,-74.5745583333,15/06/1973,
25027380,SUDAN EL   [25027380],BOLÍVAR,TIQUISIO (Puerto Rico),8.6438888889,-74.2155555556,15/07/1973,
25027390,PALOMAS LAS   [25027390],BOLÍVAR,ALTOS DEL ROSARIO,8.8305555556,-74.1705555556,15/07/1973,
25027400,ALTO DEL ROSARIO ,BOLÍVAR,ALTOS DEL ROSARIO,8.7944444444,-74.1602777778,15/07/1973,
25027420,VICTORIA LA   [25027420],BOLÍVAR,MARGARITA,8.965,-74.2208333333,15/07/1973,
25027450,PLATO MAGDALENA   ,MAGDALENA,PLATO,9.7877777778,-74.8058333333,15/08/1964,
25027490,LAS AGUADAS   [25027490],BOLÍVAR,HATILLO DE LOBA,8.9538888889,-74.0541666667,15/03/1973,
25027500,MAJAGUAL    [25027500],SUCRE,MAJAGUAL,8.5426944444,-74.6273333333,15/11/1989,
25027510,CERRITOS LOS [25027510],BOLÍVAR,BARRANCO DE LOBA,8.8519166667,-74.2687777778,15/09/1973,28/08/2014
25027520,OREJERO    [25027520],SUCRE,SUCRE,8.9822222222,-74.7138888889,15/11/1989,
25027530,BARBOSA    [25027530],BOLÍVAR,MAGANGUÉ,9.0225,-74.6366666667,15/09/1973,
25027540,MORENEROS BOCA ,BOLÍVAR,PINILLOS,9.0166666667,-74.4666666667,15/10/1973,15/12/1984
25027550,ALGARROBAL [25027550],MAGDALENA,EL BANCO,9.1315277778,-74.0442777778,15/09/1973,
25027560,CICUCO [25027560],BOLÍVAR,TALAIGUA NUEVO,9.3833333333,-74.7,15/06/1976,15/09/1984
25027570,PALENQUITO [25027570],BOLÍVAR,PINILLOS,8.9985,-74.4616944444,15/03/1974,
25027580,GUAYMARAL [25027580],BOLÍVAR,MOMPÓS,9.1151388889,-74.5951666667,15/03/1974,26/03/2012
25027600,MAJATA [25027600],BOLÍVAR,MAGANGUÉ,9.0333333333,-74.65,15/07/1976,15/02/1985
25027610,GIRASOL HDA [25027610],BOLÍVAR,BARRANCO DE LOBA,8.9166666667,-74.1333333333,15/09/1974,15/07/1981
25027620,CHAPETONA LA   [25027620],BOLÍVAR,EL PEÑÓN,8.8875,-73.9691666667,15/09/1974,
25027630,RIO NUEVO   [25027630],BOLÍVAR,BARRANCO DE LOBA,8.8097222222,-74.2544444444,15/08/1971,
25027650,NUEVE LOS [25027650],SUCRE,SINCELEJO,9.3166666667,-75.3833333333,15/12/1989,15/01/1991
25027660,DIVISA LA [25027660],SUCRE,OVEJAS,9.6,-75.2,15/03/1990,15/01/1991
25027680,MAGANGUE    [25027680],BOLÍVAR,MAGANGUÉ,9.24,-74.7416666667,15/09/1967,
25027690,PTE PEATONAL [25027690],SUCRE,SINCÉ,9.1771388889,-75.0224166667,15/11/1973,
25027700,CHIQUICERA LA   [25027700],CÓRDOBA,PLANETA RICA,8.2877777778,-75.51,15/11/1973,
25027710,CULEBRERA LA [25027710],SUCRE,GALERAS,9.1805277778,-74.9145833333,15/12/1973,28/08/2014
25027720,BARRANCONES [25027720],CESAR,CHIMICHAGUA,9.1339166667,-73.7728055556,15/01/1974,
25027730,TIERRAGRATA [25027730],MAGDALENA,SANTA BÁRBARA DE ,9.435,-74.7354166667,15/02/1974,15/10/1976
25027740,PINILLOS [25027740],BOLÍVAR,PINILLOS,8.9113888889,-74.4577777778,15/03/1974,15/07/1981
25027750,SAN MARCOS AUTOM ,SUCRE,SAN MARCOS,8.6547222222,-75.1313888889,29/10/2013,
25027760,BEIRUT AUTOM [25027760],CÓRDOBA,AYAPEL,8.3022222222,-75.1338888889,13/11/2014,
25027770,MARRALU - AUT ,CÓRDOBA,AYAPEL,8.3059166667,-75.23925,01/01/2017,
25027840,MAGANGUE [25027840],BOLÍVAR,MAGANGUÉ,9.25,-74.7666666667,15/02/1977,15/07/1981
25027850,BELEN    [25027850],MAGDALENA,EL BANCO,9.0691666667,-73.9030555556,15/09/1973,
25027860,VILLA TERESA [25027860],SUCRE,SAN BENITO ABAD,9.0239722222,-74.9766666667,15/11/1973,31/05/2014
25027920,MAGANGUE [25027920],BOLÍVAR,MAGANGUÉ,9.2333333333,-74.7666666667,15/02/1977,15/07/1981
25027930,COYONGAL    [25027930],BOLÍVAR,MAGANGUÉ,8.9480555556,-74.4858333333,15/11/1976,
25027940,TACAMOCHO [25027940],BOLÍVAR,CÓRDOBA,9.4935833333,-74.8153888889,15/10/1976,24/03/2011
25027980,UNION LA [25027980],BOLÍVAR,PINILLOS,8.7,-74.3166666667,15/10/1976,15/11/1976
25027990,CONTENTO EL [25027990],BOLÍVAR,PINILLOS,8.8833333333,-74.45,15/09/1974,15/07/1981
25028000,TACALOA [25028000],BOLÍVAR,MAGANGUÉ,9.4166666667,-74.75,15/09/1974,15/07/1981
25028010,PINTO [25028010],MAGDALENA,SANTA BÁRBARA DE ,9.4166666667,-74.7166666667,15/06/1978,15/07/1981
25028020,PTO KENNEDY [25028020],BOLÍVAR,MAGANGUÉ,9.35,-74.7166666667,15/06/1978,15/07/1981
25028030,AMPARO EL [25028030],BOLÍVAR,CICUCO,9.3,-74.6833333333,15/06/1978,15/07/1981
25028050,SAN FRANCISCO ,BOLÍVAR,MOMPÓS,9.1833333333,-74.7166666667,15/09/1979,15/07/1981
25028060,SAN JAVIER [25028060],BOLÍVAR,MOMPÓS,9.1666666667,-74.6666666667,15/07/1976,15/07/1981
25028070,DOÑA ANA [25028070],BOLÍVAR,MAGANGUÉ,9.05,-74.8,15/09/1974,15/07/1981
25028080,CARMEN EL [25028080],BOLÍVAR,MAGANGUÉ,9.0166666667,-74.7666666667,15/06/1976,15/07/1981
25028090,STA CRUZ [25028090],BOLÍVAR,MOMPÓS,9.0833333333,-74.7166666667,15/05/1974,15/07/1981
25028100,ZORRO EL [25028100],BOLÍVAR,MOMPÓS,9.0333333333,-74.6166666667,15/06/1978,15/07/1981
25028110,CANDELARIA [25028110],BOLÍVAR,MOMPÓS,9.0666666667,-74.5333333333,15/09/1979,15/07/1981
25028130,FLORIDA LA [25028130],BOLÍVAR,PINILLOS,8.9166666667,-74.4333333333,15/09/1974,15/07/1981
25028140,SAGOC [25028140],BOLÍVAR,PINILLOS,8.9333333333,-74.45,15/06/1976,15/07/1981
25028150,ILUSION LA [25028150],BOLÍVAR,PINILLOS,9.0166666667,-74.4333333333,15/05/1974,15/07/1981
25028160,LIMONES LOS [25028160],BOLÍVAR,PINILLOS,9.0333333333,-74.4666666667,15/09/1974,15/07/1981
25028170,PTA CARTAGENA ,BOLÍVAR,MAGANGUÉ,8.8833333333,-74.4833333333,15/06/1978,15/07/1981
25028180,PANELAS LAS [25028180],BOLÍVAR,PINILLOS,8.8833333333,-74.4666666667,15/07/1976,15/07/1981
25028200,PTO LOPEZ [25028200],BOLÍVAR,PINILLOS,8.9833333333,-74.3833333333,15/06/1976,15/07/1981
25028210,CNO VIDE [25028210],BOLÍVAR,PINILLOS,8.7833333333,-74.3333333333,15/09/1974,15/07/1981
25028220,NO TE PASES HDA ,BOLÍVAR,PINILLOS,8.8,-74.3333333333,15/06/1978,15/07/1981
25028230,PTO CARMEN [25028230],BOLÍVAR,PINILLOS,8.8166666667,-74.3166666667,15/06/1976,15/07/1981
25028240,NUEVO HORIZONTE ,BOLÍVAR,PINILLOS,8.8666666667,-74.35,15/09/1979,15/07/1981
25028250,CAMPO ALEGRE ,BOLÍVAR,BARRANCO DE LOBA,8.8833333333,-74.35,15/07/1976,15/07/1981
25028280,PLATANERA LA [25028280],BOLÍVAR,MARGARITA,8.95,-74.25,15/07/1976,15/07/1981
25028290,NUEVO PORVENIR ,BOLÍVAR,MARGARITA,8.9666666667,-74.2333333333,15/09/1979,15/07/1981
25028300,MARIAS LAS [25028300],BOLÍVAR,BARRANCO DE LOBA,8.9333333333,-74.1666666667,15/06/1976,15/07/1981
25028310,SAN MIGUEL [25028310],MAGDALENA,EL BANCO,9,-73.9833333333,15/06/1978,15/07/1981
25028320,SALTO EL [25028320],MAGDALENA,EL BANCO,9.0166666667,-74,15/07/1976,15/07/1981
25028330,LADRILLERAS [25028330],MAGDALENA,EL BANCO,9,-73.9666666667,15/09/1979,15/07/1981
25028340,JAGUA    [25028340],BOLÍVAR,MOMPÓS,9.0966666667,-74.6583333333,15/07/1976,
25028370,GUAYABAL [25028370],BOLÍVAR,BARRANCO DE LOBA,8.95,-74.1666666667,15/09/1974,15/07/1981
25028380,ZORRO 1 [25028380],BOLÍVAR,MOMPÓS,9.0333333333,-74.65,15/07/1976,15/07/1981
25028390,ZORRO 2 [25028390],BOLÍVAR,MOMPÓS,9.0333333333,-74.65,15/09/1974,15/07/1981
25028400,ZORRO 3 [25028400],BOLÍVAR,MOMPÓS,9.0333333333,-74.65,15/09/1974,15/07/1981
25028410,MANTEQUERA [25028410],BOLÍVAR,PINILLOS,8.8833333333,-74.45,15/09/1974,15/07/1981
25028420,VICTORIA 2 LA [25028420],BOLÍVAR,PINILLOS,8.95,-74.2333333333,15/09/1974,15/07/1981
25028430,COROZAL [25028430],SUCRE,COROZAL,9.3,-75.2833333333,15/09/1984,15/08/2003
25028440,BOMBA SUR [25028440],BOLÍVAR,MAGANGUÉ,9.2333333333,-74.7333333333,15/04/1987,15/07/1987
25028450,TACAMOCHO I   [25028450],BOLÍVAR,CÓRDOBA,9.4338888889,-74.7355555556,24/03/2011,
29010050,ZAMBRANO    [29010050],BOLÍVAR,ZAMBRANO,9.6994444444,-74.8155555556,15/11/1958,
29010120,CANONEGRO HDA ,BOLÍVAR,ZAMBRANO,9.7411111111,-74.9522222222,15/04/1974,
29010130,INDUGAN HDA [29010130],BOLÍVAR,ZAMBRANO,9.8144444444,-74.8522222222,15/04/1974,
29010140,VITOLA HDA [29010140],BOLÍVAR,SAN JUAN NEPOMUCENO,9.9166666667,-74.8833333333,15/08/1978,15/03/1979
29015000,EL GUAMO AUTOM  ,BOLÍVAR,EL GUAMO,10.0644444444,-74.8522222222,23/03/2004,
29015020,CARMEN DE BOLIVAR ,BOLÍVAR,EL CARMEN DE BOLÍVAR,9.71575,-75.1064166667,15/01/1931,
29015030,GUAMO EL   [29015030],BOLÍVAR,EL GUAMO,10.0644444444,-74.8522222222,15/05/1974,
29015040,CARMEN DE BOLIVAR ,BOLÍVAR,EL CARMEN DE BOLÍVAR,9.71575,-75.1064166667,01/03/2004,
29017010,TENERIFE [29017010],MAGDALENA,TENERIFE,9.9034722222,-74.8640833333,15/03/1973,
29027020,PTO BELLO [29027020],MAGDALENA,PLATO,9.8166666667,-74.8333333333,15/08/1972,15/03/1973
29030010,REPELON - IFA [29030010],ATLÁNTICO,REPELÓN,10.49,-75.1269444444,15/06/1954,15/11/1961
29030020,MANATI [29030020],ATLÁNTICO,MANATÍ,10.45,-74.9666666667,15/08/1958,15/10/1971
29030030,CALAMAR [29030030],BOLÍVAR,CALAMAR,10.2333333333,-74.9166666667,15/08/1958,15/10/1971
29030040,ARJONA [29030040],BOLÍVAR,ARJONA,10.2502777778,-75.3544444444,15/09/1958,
29030050,SAN ESTANISLAO ,BOLÍVAR,SAN ESTANISLAO,10.4041111111,-75.1618333333,15/08/1958,
29030060,MARIA LA BAJA [29030060],BOLÍVAR,MARÍA LA BAJA,9.9833333333,-75.3,15/05/1959,15/10/1971
29030070,COLU [29030070],BOLÍVAR,MARÍA LA BAJA,9.9166666667,-75.35,15/01/1965,15/12/1979
29030080,PTO SANTANDER ,BOLÍVAR,MARÍA LA BAJA,10.0044722222,-75.3191666667,15/01/1964,
29030090,MALAGANA [29030090],BOLÍVAR,MAHATES,10.15,-75.2166666667,15/10/1963,15/09/1971
29030110,RANCHO CHICO ,BOLÍVAR,MARÍA LA BAJA,9.9666666667,-75.3,15/07/1965,15/11/1978
29030120,HAYA LA [29030120],BOLÍVAR,SAN JUAN NEPOMUCENO,9.9666666667,-75.1833333333,15/11/1963,15/12/1970
29030130,FLAMENCO [29030130],BOLÍVAR,MARÍA LA BAJA,9.9691666667,-75.4002777778,15/12/1963,15/12/1965
29030140,SAN JOSE   [29030140],ATLÁNTICO,LURUACO,10.4394444444,-75.1083333333,15/10/1987,
29030150,SAN CRISTOBAL ,BOLÍVAR,SAN JACINTO,9.8680555556,-75.2502777778,15/11/1963,
29030160,FLAMENCO [29030160],BOLÍVAR,MARÍA LA BAJA,9.9691666667,-75.4002777778,15/11/1963,
29030170,GAMERO [29030170],BOLÍVAR,MAHATES,10.2002777778,-75.2019444444,15/02/1964,
29030200,SAN CAYETANO [29030200],BOLÍVAR,SAN JUAN NEPOMUCENO,10.0997222222,-75.1352777778,15/12/1963,
29030210,STA RITA [29030210],BOLÍVAR,SAN JUAN NEPOMUCENO,10.1,-75.1666666667,15/12/1963,15/10/1978
29030220,FLECHA LA HDA ,BOLÍVAR,MAHATES,10.15,-75.2166666667,15/09/1965,15/01/1978
29030270,LOMA GRANDE [29030270],ATLÁNTICO,REPELÓN,10.4338333333,-75.1315833333,15/09/1968,
29030280,SAN BASILIO [29030280],BOLÍVAR,MAHATES,10.0858333333,-75.2002777778,15/03/1969,
29030300,REBOSADERO [29030300],BOLÍVAR,SAN JACINTO,9.8833333333,-75.25,15/08/1969,15/04/2000
29030310,NISPERO EL [29030310],BOLÍVAR,MARÍA LA BAJA,9.9338888889,-75.4175,15/08/1969,
29030320,ROCHA [29030320],BOLÍVAR,ARJONA,10.1008333333,-75.4025,15/04/1974,
29030330,SAN BARRETO [29030330],ATLÁNTICO,SANTA LUCÍA,10.3166666667,-74.9666666667,15/08/1974,15/12/1976
29030350,SILVANO EL [29030350],ATLÁNTICO,MANATÍ,10.45,-74.9666666667,15/08/1969,15/09/1977
29030360,BANCO EL [29030360],ATLÁNTICO,REPELÓN,10.4833333333,-75.1666666667,15/10/1972,15/06/1986
29030370,STA ANA [29030370],BOLÍVAR,CARTAGENA DE INDIAS,10.2341666667,-75.5511111111,15/04/1974,
29030380,SABANAS DE MUCACAL  ,SUCRE,SAN ONOFRE,9.8798055556,-75.3886944444,15/11/1963,
29030390,CABECERA BARTOLO ,ATLÁNTICO,REPELÓN,10.4833333333,-75.15,15/08/1978,15/05/2002
29030400,BELLAVISTA [29030400],ATLÁNTICO,REPELÓN,10.45,-75.1166666667,15/08/1972,15/06/1976
29030410,CASA DE BOMBAS  ,ATLÁNTICO,REPELÓN,10.4083333333,-75.1272222222,15/05/1978,
29030420,CATIVA [29030420],BOLÍVAR,MAHATES,10.05,-75.2166666667,15/09/1979,15/02/2002
29030430,VISO EL [29030430],BOLÍVAR,MAHATES,10.1508333333,-75.2352777778,15/09/1973,
29030440,HONDURAS [29030440],BOLÍVAR,MARÍA LA BAJA,9.95,-75.3666666667,15/08/1979,15/11/1982
29030450,CALMA LA [29030450],BOLÍVAR,MARÍA LA BAJA,9.9329722222,-75.2623888889,15/04/1975,
29030460,MARIA LA BAJA [29030460],BOLÍVAR,MARÍA LA BAJA,9.9833333333,-75.3,15/08/1979,15/04/1989
29030470,MESA [29030470],BOLÍVAR,EL CARMEN DE BOLÍVAR,9.8,-75.3166666667,15/09/1979,15/02/2002
29030480,CAMARON [29030480],BOLÍVAR,EL CARMEN DE BOLÍVAR,9.8552777778,-75.3105555556,15/09/1979,
29030490,MIRANDA [29030490],BOLÍVAR,EL CARMEN DE BOLÍVAR,9.8166666667,-75.3166666667,15/04/1975,15/02/2002
29030500,CASA DE PIEDRA ,BOLÍVAR,SAN JACINTO,9.8738888889,-75.2158333333,15/04/1975,
29030510,ESPERANZA FCA LA ,BOLÍVAR,EL CARMEN DE BOLÍVAR,9.8708333333,-75.2855555556,15/01/1978,
29030520,MONTECRISTO [29030520],BOLÍVAR,SAN JUAN NEPOMUCENO,9.9493055556,-75.2171944444,15/04/1975,
29030530,PLATANO    [29030530],BOLÍVAR,MARÍA LA BAJA,9.9191666667,-75.2358333333,15/04/1975,
29030570,HAYA LA [29030570],BOLÍVAR,SAN JUAN NEPOMUCENO,9.9583333333,-75.1861111111,15/01/1964,
29030600,GAMBOTE [29030600],BOLÍVAR,ARJONA,10.1622222222,-75.2986111111,15/03/1964,15/07/1971
29030610,AY MATUYA [29030610],BOLÍVAR,MARÍA LA BAJA,9.9,-75.2833333333,15/03/1973,15/10/1977
29030640,CABECERA HENEQUEN ,ATLÁNTICO,REPELÓN,10.5166666667,-75.1166666667,15/10/1978,15/05/2002
29030650,CABECERA EL POLVAR ,ATLÁNTICO,REPELÓN,10.5,-75.15,15/10/1978,15/05/2002
29030680,GAMERO [29030680],BOLÍVAR,MAHATES,10.2002777778,-75.2019444444,15/07/1966,15/06/1968
29030710,COLU NUEVO [29030710],BOLÍVAR,MARÍA LA BAJA,9.9333333333,-75.35,15/09/1979,15/02/2002
29030730,SINCERIN [29030730],BOLÍVAR,ARJONA,10.1425833333,-75.2782777778,15/10/1940,15/03/1946
29030780,MAMPUJAN    [29030780],BOLÍVAR,MARÍA LA BAJA,9.9836111111,-75.2275,15/07/1983,
29035000,SINCERIN [29035000],BOLÍVAR,ARJONA,10.1425833333,-75.2782777778,05/05/2013,
29035010,SINCERIN [29035010],BOLÍVAR,ARJONA,10.1425833333,-75.2782777778,15/10/1940,15/02/1981
29035030,PRESA AY GRANDE ,BOLÍVAR,MARÍA LA BAJA,9.8794444444,-75.3265833333,15/08/1969,
29035040,NUEVA FLORIDA   ,BOLÍVAR,MARÍA LA BAJA,9.9441666667,-75.3513888889,15/01/1963,
29035050,BELLA FUENTE [29035050],ATLÁNTICO,SABANALARGA,10.65,-75.0166666667,15/09/1963,15/03/1971
29035060,VERACRUZ [29035060],ATLÁNTICO,REPELÓN,10.5666666667,-75.0833333333,15/01/1963,15/12/1977
29035070,REPELON    [29035070],ATLÁNTICO,REPELÓN,10.49,-75.1269444444,15/09/1963,
29035080,NORMAL MANATI ,ATLÁNTICO,MANATÍ,10.4535833333,-74.9546388889,15/10/1963,
29035090,ING SANTA CRUZ ,BOLÍVAR,MAHATES,10.1333333333,-75.25,15/02/1968,15/09/1976
29035110,SAN PABLO [29035110],BOLÍVAR,MARÍA LA BAJA,10.0431666667,-75.2586111111,15/10/1963,
29035120,LIMON EL [29035120],ATLÁNTICO,MANATÍ,10.4166666667,-75.0666666667,15/12/1965,15/05/2002
29035130,STA LUCIA GJA [29035130],ATLÁNTICO,SANTA LUCÍA,10.3166666667,-74.95,15/03/1968,15/11/1987
29035140,AGUAS BLANCAS ,BOLÍVAR,MARÍA LA BAJA,9.9166666667,-75.3333333333,15/11/1963,15/11/1971
29035150,LAMINAS DEL CARIBE ,SUCRE,SAN ONOFRE,10.0166666667,-75.45,15/03/1978,15/07/1979
29035170,SINCERIN [29035170],BOLÍVAR,ARJONA,10.1425833333,-75.2782777778,15/11/1963,
29035180,PRESA AY MATUYA ,BOLÍVAR,MARÍA LA BAJA,9.9284722222,-75.2799166667,15/01/1976,28/08/2014
29035200,REPELON AUTOM   ,ATLÁNTICO,REPELÓN,10.49,-75.1269444444,12/09/2007,
29037001,TAMBO EL AUTOM  AUT ,BOLÍVAR,ARJONA,10.1843888889,-75.2830555556,27/04/2012,
29037002,JUAN GOMEZ AUTOM  ,BOLÍVAR,ARJONA,10.0919305556,-75.4106861111,01/05/2016,
29037003,PALOTAL    AUT (29037003),BOLÍVAR,ARJONA,10.0939083333,-75.4919055556,,
29037020,CALAMAR [29037020],BOLÍVAR,CALAMAR,10.2538611111,-74.9116944444,15/07/1940,
29037040,INDERENA [29037040],ATLÁNTICO,MANATÍ,10.4,-75.0666666667,15/12/1984,15/02/1985
29037060,REPELON [29037060],ATLÁNTICO,REPELÓN,10.49,-75.1269444444,15/07/1958,15/02/1960
29037080,GAMBOTE CANAL DEL ,BOLÍVAR,ARJONA,10.1622222222,-75.2986111111,27/04/2012,
29037090,VILLARROSA-COMPUER ,ATLÁNTICO,REPELÓN,10.4166666667,-75.15,15/05/1963,15/02/1985
29037100,PRESA AY GRANDE ,BOLÍVAR,MARÍA LA BAJA,9.8751944444,-75.3265,15/10/1963,
29037110,MAHATES [29037110],BOLÍVAR,MAHATES,10.25,-75.2,15/09/1963,15/08/1977
29037140,MAJAGUA [29037140],BOLÍVAR,MARÍA LA BAJA,10.0333333333,-75.2666666667,15/08/1964,15/09/1986
29037180,CAMPAMENTO [29037180],BOLÍVAR,MARÍA LA BAJA,9.9666666667,-75.2833333333,15/01/1965,15/12/1995
29037190,PRESA AY MATUYA  ,BOLÍVAR,MARÍA LA BAJA,9.9275,-75.3091666667,15/01/1965,
29037220,COMPUERTAS [29037220],BOLÍVAR,MARÍA LA BAJA,9.9333333333,-75.3166666667,15/01/1968,15/01/1991
29037230,BOQUITAS [29037230],ATLÁNTICO,SANTA LUCÍA,10.3666666667,-75.0166666667,15/12/1984,15/04/1986
29037330,BOQUITAS [29037330],ATLÁNTICO,SANTA LUCÍA,10.35,-75,15/12/1984,15/02/2001
29037360,INKORA K-7 [29037360],ATLÁNTICO,SANTA LUCÍA,10.3028083333,-74.9465583333,15/08/1972,31/05/2011
29037370,STA HELENA 1  [29037370],BOLÍVAR,MARÍA LA BAJA,10.0586111111,-75.4027777778,15/06/1978,
29037380,PTO SANTANDER 1 ,BOLÍVAR,MARÍA LA BAJA,10,-75.3166666667,15/06/1978,15/09/1984
29037390,CORREA 2   [29037390],BOLÍVAR,MARÍA LA BAJA,10.0444444444,-75.4047222222,15/05/1978,
29037400,CORREA 1 [29037400],BOLÍVAR,MARÍA LA BAJA,10.0569722222,-75.4052777778,15/06/1978,28/08/2014
29037410,CRUCE OLEODUCTO ,BOLÍVAR,ARJONA,10.0666666667,-75.3833333333,15/06/1978,15/11/1982
29037420,SALIDA EMB MATUYA ,BOLÍVAR,MARÍA LA BAJA,9.9333333333,-75.3,15/01/1978,15/05/2002
29037440,CERRITOS LOS [29037440],BOLÍVAR,MARÍA LA BAJA,10.05,-75.3833333333,15/06/1978,15/11/1982
29037450,STA HELENA 2  [29037450],BOLÍVAR,ARJONA,10.0680555556,-75.4358333333,15/06/1978,
29037460,PTO SANTANDER   ,BOLÍVAR,MARÍA LA BAJA,10.0069444444,-75.3188888889,15/12/1979,
29037470,ALTAMIRA [29037470],BOLÍVAR,MARÍA LA BAJA,9.9666666667,-75.3333333333,15/12/1979,15/11/1982
29037480,RADIAL PPAL 12 [29037480],BOLÍVAR,MARÍA LA BAJA,10.1,-75.2666666667,15/03/1980,15/05/2002
29037490,RADIAL PPAL 8 [29037490],BOLÍVAR,MARÍA LA BAJA,10.05,-75.2666666667,15/03/1980,15/04/1993
29037500,RADIAL PPAL 6 [29037500],BOLÍVAR,MARÍA LA BAJA,10.0333333333,-75.2833333333,15/03/1980,15/04/1993
29037510,AHUYAMAL [29037510],ATLÁNTICO,MANATÍ,10.4666666667,-75.1166666667,15/12/1984,15/02/1985
29037610,KILOMETRO 107   ,BOLÍVAR,CARTAGENA DE INDIAS,10.2280555556,-75.5230555556,15/04/1981,
29037620,BARBACOAS [29037620],BOLÍVAR,CARTAGENA DE INDIAS,10.2333333333,-75.5166666667,15/04/1981,15/01/1991
29037630,EMBALSE MATUYA ,BOLÍVAR,MARÍA LA BAJA,9.9333333333,-75.2833333333,15/01/1978,15/03/1982
29037640,AY MORENA [29037640],BOLÍVAR,EL CARMEN DE BOLÍVAR,9.85,-75.25,15/01/1978,15/02/1978
29037660,COMPUERTA RADIAL ,BOLÍVAR,MARÍA LA BAJA,9.95,-75.2833333333,15/12/1979,15/01/1980
29037670,RADIAL PPAL 4 [29037670],BOLÍVAR,MARÍA LA BAJA,9.95,-75.3,15/12/1979,15/05/2002
29037680,SALIDA EMB GRANDE ,BOLÍVAR,MARÍA LA BAJA,9.8833333333,-75.35,15/12/1981,15/08/2003
29037701,GUAJARO COMPUERTAS ,BOLÍVAR,SAN CRISTOBAL,10.4097222222,-75.0741611111,28/03/2014,
29037702,CAPOTE AUTOM ,BOLÍVAR,MAHATES,10.2784444444,-75.1653333333,01/04/2014,
29037720,ESTRUCTURA K 1+870 ,BOLÍVAR,MARÍA LA BAJA,9.9833333333,-75.3,15/01/1980,15/05/2002
29037730,AY MARIA MATAMBA ,BOLÍVAR,EL CARMEN DE BOLÍVAR,9.8666666667,-75.25,15/01/1978,15/02/1978
29037740,PAVA [29037740],BOLÍVAR,MARÍA LA BAJA,10.0833333333,-75.25,15/06/1983,15/01/1991
29037750,MESITA    [29037750],BOLÍVAR,EL CARMEN DE BOLÍVAR,9.8719444444,-75.3033333333,15/06/1983,
29037760,ESPERANZA LA   [29037760],BOLÍVAR,EL CARMEN DE BOLÍVAR,9.8716666667,-75.2752777778,15/06/1983,
29037770,SAN CRISTOBAL   ,BOLÍVAR,SAN JACINTO,9.8861111111,-75.2486111111,15/06/1983,
29037780,ARRASTRE EL [29037780],BOLÍVAR,ARJONA,10.0833333333,-75.4,15/02/1978,15/10/1982
29037790,CASA DE BOMBAS ,ATLÁNTICO,REPELÓN,10.5,-75.1166666667,15/08/1983,15/09/2005
29037800,COMPUERTAS C DIQUE ,ATLÁNTICO,MANATÍ,10.4096111111,-75.0740277778,15/08/1983,
29037810,COMPUERTAS GUAJARO ,ATLÁNTICO,MANATÍ,10.4,-75.0666666667,15/08/1983,15/09/2005
29037820,PTE CALAMAR AUTOM  ,BOLÍVAR,CALAMAR,10.2617777778,-74.9125,25/10/2011,
29037880,RADIAL PASTON ,BOLÍVAR,MAHATES,10.0833333333,-75.25,15/03/1984,15/05/2002
29040020,MONTEBELLO [29040020],ATLÁNTICO,BARANOA,10.7085,-74.9078333333,15/12/1985,
29040070,PONEDERA [29040070],ATLÁNTICO,PONEDERA,10.6417777778,-74.7707222222,15/03/1959,
29040080,POLONUEVO [29040080],ATLÁNTICO,POLONUEVO,10.779,-74.8579166667,15/03/1959,
29040190,SABANALARGA [29040190],ATLÁNTICO,SABANALARGA,10.6367222222,-74.9188888889,15/03/1959,
29040200,LENA    [29040200],ATLÁNTICO,CANDELARIA,10.5217222222,-74.8907777778,15/06/1969,
29040230,PTO COLOMBIA [29040230],ATLÁNTICO,PUERTO COLOMBIA,10.9883333333,-74.9696666667,15/04/1974,
29040240,USIACURI    [29040240],ATLÁNTICO,USIACURÍ,10.7447222222,-74.9805555556,15/02/1964,
29040250,CAMPO DE LA CRUZ ,ATLÁNTICO,CAMPO DE LA CRUZ,10.3766388889,-74.8884166667,15/09/1978,
29040260,CANDELARIA [29040260],ATLÁNTICO,CANDELARIA,10.4551111111,-74.8868888889,15/09/1978,
29040270,RABON EL HDA  [29040270],ATLÁNTICO,SANTA LUCÍA,10.3869444444,-74.9627777778,15/09/1978,
29040290,CAMPANOS LOS ,ATLÁNTICO,SABANALARGA,10.5577777778,-74.9717777778,15/08/1978,
29040300,PTO GIRALDO [29040300],ATLÁNTICO,PONEDERA,10.5078888889,-74.8222777778,15/09/1978,
29040310,SAN PEDRITO ALERTA ,ATLÁNTICO,SUAN,10.2778888889,-74.9202222222,15/09/1978,
29040390,GALLEGO [29040390],ATLÁNTICO,SABANALARGA,10.6166666667,-75,15/09/1969,15/07/1976
29040400,JUAN DE ACOSTA ,ATLÁNTICO,JUAN DE ACOSTA,10.8333333333,-75.0333333333,15/03/1959,15/10/1971
29040410,USIACURI [29040410],ATLÁNTICO,USIACURÍ,10.7447222222,-74.9805555556,15/11/1963,15/07/1971
29040450,BARRANQUILLA SEDE ,ATLÁNTICO,BARRANQUILLA,10.9976111111,-74.7967222222,01/11/2007,
29045000,SABANALARGA AUTOMATICA ,ATLÁNTICO,SABANALARGA,10.6367222222,-74.9188888889,05/05/2013,
29045020,A.E CORTISSOZ   [29045020],ATLÁNTICO,SOLEDAD,10.9177777778,-74.7797222222,15/05/1940,
29045030,SABANALARGA [29045030],ATLÁNTICO,SABANALARGA,10.6367222222,-74.9188888889,15/09/1931,15/12/1942
29045090,MALAMBITO [29045090],ATLÁNTICO,SUAN,10.3,-74.9,15/10/1969,15/08/1978
29045100,BASE NAVAL [29045100],ATLÁNTICO,BARRANQUILLA,11,-74.7833333333,15/06/1973,15/09/1992
29045110,JUAN DE ACOSTA  ,ATLÁNTICO,JUAN DE ACOSTA,10.8338888889,-75.0461111111,15/01/1964,
29045120,FLORES LAS   [29045120],ATLÁNTICO,BARRANQUILLA,11.04,-74.8208333333,15/04/1971,
29045180,LAS FLORES AUTOM  ,ATLÁNTICO,BARRANQUILLA,11.04,-74.8208333333,31/08/2006,06/01/2016
29045190,A.E.CORTISSOZ AUTOM   ,ATLÁNTICO,SOLEDAD,10.9177777778,-74.7797222222,04/05/2005,
29045200,ESC NAVAL BARRANQUILLA ,ATLÁNTICO,BARRANQUILLA,11.0063888889,-74.785,10/06/2016,
29047000,TEBSA BQUILLA ,ATLÁNTICO,SOLEDAD,10.9366388889,-74.7598888889,05/05/2013,
29047060,PLANTA EL RIO [29047060],ATLÁNTICO,BARRANQUILLA,10.9666666667,-74.7666666667,15/06/1978,15/01/1988
29047070,SAN PEDRITO AUTOMATICA,ATLÁNTICO,SUAN,10.2682222222,-74.9078611111,15/05/1978,
29047080,DARCENA BARRANQUIL   ,ATLÁNTICO,BARRANQUILLA,10.9663888889,-74.76,02/09/2006,
29051001,SANTA HELENA-AUT ,BOLÍVAR,ARJONA,10.0631111111,-75.4007777778,07/11/2017,
29057001,SAN CRISTOBAL ,BOLÍVAR,SAN CRISTOBAL,10.3922777778,-75.0614444444,01/04/2014,
29057002,LEQUERICA AUTOM   AUT  ,BOLÍVAR,CARTAGENA DE INDIAS,10.2376666667,-75.5188611111,01/04/2016,
29057003,MACHADO  AUT  ,BOLÍVAR,ARROYOHONDO,10.2347222222,-74.9689722222,01/10/2014,
29057005,JOBO AUTOM   (29057005),BOLÍVAR,CALAMAR,10.3298694444,-75.0448638889,01/04/2014,
29057006,MARIA LA BAJA AUTOM.  ,BOLÍVAR,MARÍA LA BAJA,9.9833333333,-75.3,,
37017020,PTE TRUTE [37017020],NORTE DE SANTANDER,SILOS,7.2333333333,-72.7666666667,15/02/1985,15/02/1988
31015010,TRUENO EL [31015010],GUAVIARE,SAN JOSÉ DEL GUAVIARE,2.3727777778,-72.64,15/05/1982,
31090010,GUAYARE [31090010],GUAINÍA,INÍRIDA,3.9576388889,-67.8353333333,15/06/1983,
31095010,PTO INIRIDA [31095010],GUAINÍA,INÍRIDA,3.8676666667,-67.9316944444,15/11/1972,
31095030,PTO INIRIDA AUTOMATICA ,GUAINÍA,INÍRIDA,3.8676666667,-67.9316944444,27/03/2003,
31097010,GUAYARE [31097010],GUAINÍA,INÍRIDA,3.9576388889,-67.8322777778,15/12/1983,
31097020,PTO INIRIDA [31097020],GUAINÍA,INÍRIDA,3.8744166667,-67.9190555556,15/02/1984,
32010010,MARIPOSA LA [32010010],META,URIBE,2.5628333333,-74.1030833333,15/06/1983,
32017010,MARIPOSA LA [32017010],META,URIBE,2.5628333333,-74.1030833333,15/02/1983,15/05/1985
32020010,BOCAS DEL DUDA ,META,LA MACARENA,2.5333333333,-73.9333333333,15/06/1983,15/10/1983
32020020,URIBE LA [32020020],META,URIBE,3.2432222222,-74.3537222222,15/03/1993,
32030010,BALSORA LA [32030010],META,LA MACARENA,2.4383888889,-73.9322777778,15/06/1983,15/12/1983
32030020,RAUDAL UNO [32030020],META,LA MACARENA,2.3225,-73.9438888889,15/06/1983,
32035010,MACARENA LA   [32035010],META,LA MACARENA,2.1761111111,-73.7933333333,15/10/1967,
32035020,BALSORA LA   [32035020],META,LA MACARENA,2.4383888889,-73.9322777778,15/12/1983,
32037010,BALSORA LA   [32037010],META,LA MACARENA,2.4383888889,-73.9322777778,15/02/1983,
32037020,RAUDAL UNO [32037020],META,LA MACARENA,2.3225,-73.9438888889,15/02/1983,15/03/2000
32037030,MACARENA LA   [32037030],META,LA MACARENA,2.1856388889,-73.79225,15/02/1983,
32040010,CATALINA LA [32040010],GUAVIARE,SAN JOSÉ DEL GUAVIARE,2.3546666667,-73.5809444444,15/06/1983,
32040020,ISLA DEL MUERTO ,GUAVIARE,SAN JOSÉ DEL GUAVIARE,2.3742777778,-73.1663888889,15/06/1983,
32040030,RAUDAL DOS [32040030],GUAVIARE,SAN JOSÉ DEL GUAVIARE,2.5833333333,-72.8666666667,15/06/1983,15/12/1984
32045010,BOCAS DEL ARIARI ,GUAVIARE,SAN JOSÉ DEL GUAVIARE,2.5833333333,-72.7833333333,15/09/1967,15/08/1982
32047010,RAUDAL DOS [32047010],GUAVIARE,SAN JOSÉ DEL GUAVIARE,2.5833333333,-72.8666666667,15/07/1980,
32047020,BAJO GUAYABERO ,GUAVIARE,SAN JOSÉ DEL GUAVIARE,2.6136944444,-72.81375,15/07/1980,20/09/2013
32047030,CATALINA LA [32047030],GUAVIARE,SAN JOSÉ DEL GUAVIARE,2.3546666667,-73.5809444444,15/02/1983,
32047040,ISLA DEL MUERTO ,GUAVIARE,SAN JOSÉ DEL GUAVIARE,2.3742777778,-73.1663888889,15/02/1983,20/09/2013
32060020,MESA DE YAMANES ,META,EL CASTILLO,3.5309444444,-73.9010833333,15/01/1969,
32060030,SAN LUIS CUBARRAL ,META,CUBARRAL,3.7907222222,-73.8427777778,15/01/1969,
32060050,LEJANIAS [32060050],META,LEJANÍAS,3.5333333333,-74.0166666667,15/09/1979,15/07/1990
32060060,CALIME [32060060],META,EL DORADO,3.7423333333,-73.8346944444,15/07/1978,
32060090,LEJANIAS CASTILLO ,META,LEJANÍAS,3.5762222222,-74.0596388889,15/12/1983,
32060100,PUERTO ANGOSTURAS ,META,CUBARRAL,3.7926666667,-73.9224722222,15/03/2001,
32065010,LEJANIAS [32065010],META,LEJANÍAS,3.5333333333,-74.0166666667,15/03/1989,
32067020,LEJANIAS [32067020],META,LEJANÍAS,3.5333333333,-74.0166666667,15/12/1983,25/02/2011
32067030,PTO ANGOSTURAS ,META,CUBARRAL,3.7926666667,-73.9224722222,15/12/1991,
32070010,CAMPO ALEGRE ,META,VISTAHERMOSA,3.2,-73.75,15/09/1979,
32070020,CAÑO BLANCO [32070020],META,FUENTE DE ORO,3.25,-73.5166666667,15/09/1979,
32070030,MICOS LOS [32070030],META,SAN JUAN DE ARAMA,3.3163888889,-73.8921666667,15/09/1979,
32070040,PINALITO [32070040],META,VISTAHERMOSA,2.9833333333,-73.6333333333,15/09/1978,
32070050,PTO LLERAS [32070050],META,PUERTO LLERAS,3.2833333333,-73.3833333333,15/07/1979,15/06/1990
32070060,FUENTE DE ORO ,META,FUENTE DE ORO,3.4666666667,-73.6333333333,15/07/1979,
32070080,TIERRA GRATA [32070080],META,PUERTO LLERAS,3.0875,-73.2263888889,15/06/1983,
32070090,PEÑAS BLANCAS ,META,SAN JUAN DE ARAMA,3.3166666667,-73.9166666667,15/12/1983,
32070100,SAN JUAN DE ARAMA ,META,SAN JUAN DE ARAMA,3.3750833333,-73.8919444444,15/12/1983,
32070110,AGUAS CLARAS [32070110],META,GRANADA,3.4720277778,-73.8578333333,15/04/1989,
32070120,MESA DE FERNANDEZ ,META,SAN JUAN DE ARAMA,3.4565555556,-74.0299444444,15/10/1993,
32075010,NARANJOS LOS [32075010],META,GRANADA,3.4666666667,-73.7166666667,15/03/1968,15/03/1976
32075020,PTO LIMON [32075020],META,FUENTE DE ORO,3.3666666667,-73.5,15/05/1968,15/01/1990
32075030,VISTA HERMOSA ,META,VISTAHERMOSA,3.1203888889,-73.7540277778,15/04/1969,
32075040,HOLANDA LA [32075040],META,GRANADA,3.5163333333,-73.7160277778,15/11/1978,
32075050,MESETAS [32075050],META,MESETAS,3.3800555556,-74.0429722222,15/12/1983,
32075060,COOPERATIVA LA [32075060],META,FUENTE DE ORO,3.3666666667,-73.7,15/04/1986,30/04/2005
32075070,AGUAS CLARAS [32075070],META,GRANADA,3.4720277778,-73.8578333333,15/04/1986,15/04/1989
32075080,PTO LLERAS [32075080],META,PUERTO LLERAS,3.2676944444,-73.3731944444,15/10/1990,
32077010,PTE CARRETERA ,META,GRANADA,3.4166666667,-73.7833333333,15/09/1988,15/06/2002
32077020,PTE CARRETERA ,META,GRANADA,3.4833333333,-73.7333333333,15/09/1988,15/06/2002
32077030,PTE CARRETERA ,META,GRANADA,3.4166666667,-73.7833333333,15/09/1988,15/06/2002
32077040,PTE CARRETERA ,META,GRANADA,3.45,-73.75,15/09/1988,15/06/2002
32077050,PTE CARRETERA ,META,GRANADA,3.4333333333,-73.7833333333,15/09/1988,15/06/2002
32077060,PTO LLERAS [32077060],META,PUERTO LLERAS,3.2666666667,-73.3833333333,15/10/1978,15/12/1984
32077070,PINALITO [32077070],META,VISTAHERMOSA,2.9742222222,-73.6754722222,15/09/1978,
32077080,PTO RICO [32077080],META,PUERTO RICO,2.9416666667,-73.2113888889,15/10/1978,
32077090,TIERRA GRATA [32077090],META,PUERTO LLERAS,3.0875,-73.2263888889,15/02/1983,15/07/1986
32077100,PEÑAS BLANCAS   ,META,SAN JUAN DE ARAMA,3.2516111111,-73.8928333333,15/12/1983,
32077110,EL LIMON[32077110],META,SAN JUAN DE ARAMA,3.3689027778,-74.0296111111,15/12/1983,
